     2.11           OBSERVATION DATA    M (MIXED)           RINEX VERSION / TYPE
trigZero2one        COSMIC CDAAC        14-JUL-24 01:18     PGM / RUN BY / DATE
C2E1 L76 (POD2)                                             MARKER NAME
SPACEBORNE                                                  MARKER TYPE
FORMOSAT7/COSMIC-2E NSPO/UCAR                               OBSERVER / AGENCY
                    TRIG                                    REC # / TYPE / VERS
                    COSMIC-2 (+X POD)                       ANT # / TYPE
        0.4362       -0.4602       -0.4130                  ANTENNA: DELTA X/Y/Z
        0.9659        0.0000       -0.2588                  ANTENNA: B.SIGHT XYZ
        0.0000        0.0000        0.0000                  CENTER OF MASS: XYZ
     1     1                                                WAVELENGTH FACT L1/2
     7    L1    L2    C1    C2    P2    S1    S2            # / TYPES OF OBSERV
  2024     7    14     0    36   11.0000000     GPS         TIME OF FIRST OBS
  2024     7    14     1    16   20.0000000     GPS         TIME OF LAST OBS
                                                            END OF HEADER
 24  7 14  0 36 11.0000000  0  1R16
   -117059.952      -91047.058    27253030.025    27253046.125
       451.000         278.000
 24  7 14  0 36 12.0000000  0  1R16
   -140945.264     -109624.610    27248558.937    27248575.004
       450.000         274.000
 24  7 14  0 36 13.0000000  0  1R16
   -164844.092     -128212.667    27244084.932    27244101.061
       451.000         270.000
 24  7 14  0 36 14.0000000  0  1R16
   -188756.484     -146811.278    27239608.258    27239625.117
       452.000         266.000
 24  7 14  0 36 15.0000000  0  1R16
   -212682.392     -165420.375    27235129.483    27235146.032
       448.000         268.000
 24  7 14  0 36 16.0000000  0  1R16
   -236621.847     -184039.986    27230648.141    27230663.911
       475.000         294.000
 24  7 14  0 36 17.0000000  0  1R16
   -260575.034     -202670.342    27226164.378    27226180.739
       439.000         257.000
 24  7 14  0 36 18.0000000  0  1R16
   -284541.689     -221311.091    27221677.508    27221693.692
       466.000         287.000
 24  7 14  0 36 19.0000000  0  1R16
   -308522.076     -239962.559    27217188.546    27217204.569
       463.000         281.000
 24  7 14  0 36 20.0000000  0  1R16
   -332516.073     -258624.587    27212696.770    27212713.306
       459.000         282.000
 24  7 14  0 36 21.0000000  0  1R16
   -356523.667     -277297.170    27208202.805    27208218.536
       465.000         283.000
 24  7 14  0 36 22.0000000  0  1R16
   -380544.956     -295980.424    27203705.827    27203721.508
       462.000         279.000
 24  7 14  0 36 23.0000000  0  1R16
   -404579.846     -314674.252    27199206.234    27199222.035
       464.000         285.000
 24  7 14  0 36 24.0000000  0  1R16
   -428628.325     -333378.647    27194704.544    27194721.020
       464.000         282.000
 24  7 14  0 36 25.0000000  0  1R16
   -452690.367     -352093.571    27190199.629    27190215.710
       468.000         280.000
 24  7 14  0 36 26.0000000  0  1R16
   -476766.028     -370819.101    27185692.922    27185709.007
       472.000         275.000
 24  7 14  0 36 27.0000000  0  1R16
   -500855.272     -389555.193    27181183.563    27181199.486
       461.000         276.000
 24  7 14  0 36 28.0000000  0  1R16
   -524958.042     -408301.789    27176671.002    27176687.322
       475.000         292.000
 24  7 14  0 36 29.0000000  0  1R16
   -549074.352     -427058.914    27172157.015    27172172.687
       467.000         280.000
 24  7 14  0 36 30.0000000  0  1R16
   -573204.112     -445826.477    27167639.826    27167655.894
       469.000         286.000
 24  7 14  0 36 31.0000000  0  1R16
   -597347.411     -464604.575    27163119.865    27163136.085
       465.000         280.000
 24  7 14  0 36 32.0000000  0  1R16
   -621504.202     -483393.156    27158598.012    27158613.300
       475.000         289.000
 24  7 14  0 36 33.0000000  0  1R16
   -645674.559     -502192.319    27154072.748    27154089.440
       455.000         268.000
 24  7 14  0 36 34.0000000  0  1R16
   -669858.307     -521001.841    27149545.622    27149561.373
       474.000         292.000
 24  7 14  0 36 35.0000000  0  1R16
   -694055.627     -539821.980    27145015.740    27145031.996
       474.000         291.000
 24  7 14  0 36 36.0000000  0  1R16
   -718266.277     -558652.428    27140483.671    27140499.692
       464.000         277.000
 24  7 14  0 36 37.0000000  0  1R16
   -742490.382     -577493.348    27135948.514    27135964.568
       463.000         275.000
 24  7 14  0 36 38.0000000  0  1R16
   -766727.954     -596344.767    27131411.279    27131427.470
       486.000         285.000
 24  7 14  0 36 39.0000000  0  1R16
   -790978.858     -615206.515    27126871.697    27126887.224
       471.000         286.000
 24  7 14  0 36 40.0000000  0  1R16
   -815243.168     -634078.691    27122329.157    27122345.756
       467.000         283.000
 24  7 14  0 36 41.0000000  0  1R16
   -839520.834     -652961.246    27117784.410    27117800.209
       473.000         287.000
 24  7 14  0 36 42.0000000  0  1R16
   -863811.912     -671854.267    27113237.199    27113253.068
       476.000         289.000
 24  7 14  0 36 43.0000000  0  1R16
   -888116.353     -690757.689    27108687.303    27108702.479
       472.000         284.000
 24  7 14  0 36 44.0000000  0  1R16
   -912434.146     -709671.508    27104134.369    27104150.668
       473.000         289.000
 24  7 14  0 36 45.0000000  0  1R16
   -936765.341     -728595.809    27099579.834    27099596.072
       486.000         294.000
 24  7 14  0 36 46.0000000  0  1R16
   -961110.063     -747530.719    27095022.462    27095038.646
       452.000         271.000
 24  7 14  0 36 47.0000000  0  1R16
   -985467.773     -766475.577    27090462.728    27090479.000
       462.000         276.000
 24  7 14  0 36 48.0000000  0  1R16
  -1009838.559     -785430.512    27085900.600    27085916.180
       469.000         279.000
 24  7 14  0 36 49.0000000  0  1R16
  -1034222.673     -804395.843    27081335.725    27081351.014
       462.000         267.000
 24  7 14  0 36 50.0000000  0  1R16
  -1058619.812     -823371.184    27076768.166    27076784.008
       488.000         294.000
 24  7 14  0 36 51.0000000  0  1R16
  -1083030.419     -842357.152    27072198.414    27072214.694
       480.000         292.000
 24  7 14  0 36 52.0000000  0  1R16
  -1107454.349     -861353.530    27067626.413    27067641.895
       469.000         281.000
 24  7 14  0 36 53.0000000  0  1R16
  -1131891.392     -880360.067    27063051.112    27063067.583
       480.000         289.000
 24  7 14  0 36 54.0000000  0  1R16
  -1156341.658     -899376.908    27058474.328    27058489.922
       477.000         288.000
 24  7 14  0 36 55.0000000  0  1R16
  -1180805.079     -918403.983    27053894.852    27053910.361
       480.000         291.000
 24  7 14  0 36 56.0000000  0  1R16
  -1205281.680     -937441.325    27049312.305    27049328.732
       480.000         289.000
 24  7 14  0 36 57.0000000  0  1R16
  -1229771.421     -956488.890    27044727.906    27044743.671
       478.000         290.000
 24  7 14  0 36 58.0000000  0  1R16
  -1254274.352     -975546.748    27040141.582    27040157.136
       477.000         289.000
 24  7 14  0 36 59.0000000  0  1R16
  -1278790.410     -994614.831    27035551.890    27035567.384
       478.000         287.000
 24  7 14  0 37  0.0000000  0  1R16
  -1303319.575    -1013693.117    27030959.850    27030975.271
       478.000         287.000
 24  7 14  0 37  1.0000000  0  1R16
  -1327861.835    -1032781.599    27026365.422    27026380.891
       479.000         282.000
 24  7 14  0 37  2.0000000  0  1R16
  -1352417.201    -1051880.302    27021768.812    27021784.377
       482.000         285.000
 24  7 14  0 37  3.0000000  0  1R16
  -1376985.664    -1070989.216    27017169.338    27017185.163
       475.000         286.000
 24  7 14  0 37  4.0000000  0  1R16
  -1401567.145    -1090108.253    27012567.925    27012583.733
       484.000         287.000
 24  7 14  0 37  5.0000000  0  1R16
  -1426161.649    -1109237.429    27007963.678    27007979.582
       482.000         291.000
 24  7 14  0 37  6.0000000  0  1R16
  -1450769.184    -1128376.771    27003357.630    27003373.597
       483.000         294.000
 24  7 14  0 37  7.0000000  0  1R16
  -1475389.703    -1147526.197    26998748.866    26998764.426
       480.000         287.000
 24  7 14  0 37  8.0000000  0  1R16
  -1500023.204    -1166685.742    26994137.394    26994153.178
       468.000         279.000
 24  7 14  0 37  9.0000000  0  1R16
  -1524669.605    -1185855.287    26989523.201    26989539.882
       488.000         297.000
 24  7 14  0 37 10.0000000  0  1R16
  -1549329.029    -1205035.023    26984907.020    26984923.310
       478.000         286.000
 24  7 14  0 37 11.0000000  0  1R16
  -1574001.290    -1224224.686    26980288.582    26980304.903
       490.000         295.000
 24  7 14  0 37 12.0000000  0  1R16
  -1598686.561    -1243424.533    26975667.559    26975683.461
       473.000         280.000
 24  7 14  0 37 13.0000000  0  1R16
  -1623384.642    -1262634.284    26971044.390    26971060.868
       490.000         295.000
 24  7 14  0 37 14.0000000  0  1R16
  -1648095.630    -1281854.149    26966418.377    26966434.985
       474.000         264.000
 24  7 14  0 37 15.0000000  0  1R16
  -1672819.289    -1301083.720    26961790.206    26961805.918
       477.000         294.000
 24  7 14  0 37 16.0000000  0  1R16
  -1697555.777    -1320323.331    26957159.402    26957175.566
       489.000         290.000
 24  7 14  0 37 17.0000000  0  1R16
  -1722305.152    -1339572.956    26952526.349    26952542.673
       471.000         282.000
 24  7 14  0 37 18.0000000  0  1R16
  -1747067.216    -1358832.390    26947891.219    26947907.967
       482.000         292.000
 24  7 14  0 37 19.0000000  0  1R16
  -1771842.323    -1378102.084    26943252.989    26943269.480
       485.000         293.000
 24  7 14  0 37 20.0000000  0  1R16
  -1796630.077    -1397381.585    26938612.820    26938629.468
       478.000         269.000
 24  7 14  0 37 21.0000000  0  1R16
  -1821430.551    -1416670.916    26933969.821    26933986.768
       487.000         294.000
 24  7 14  0 37 22.0000000  0  1R16
  -1846243.847    -1435970.268    26929325.022    26929341.559
       461.000         270.000
 24  7 14  0 37 23.0000000  0  1R16
  -1871069.744    -1455279.395    26924677.997    26924694.058
       488.000         303.000
 24  7 14  0 37 24.0000000  0  1R16
  -1895908.554    -1474598.649    26920028.105    26920044.665
       458.000         262.000
 24  7 14  0 37 25.0000000  0  1R16
  -1920759.926    -1493927.668    26915376.226    26915392.398
       471.000         296.000
 24  7 14  0 37 26.0000000  0  1R16
  -1945624.119    -1513266.639    26910721.496    26910738.396
       482.000         280.000
 24  7 14  0 37 27.0000000  0  1R16
  -1970500.877    -1532615.466    26906064.771    26906081.451
       435.000         255.000
 24  7 14  0 37 28.0000000  0  1R16
  -1995390.119    -1551973.833    26901405.390    26901421.946
       447.000         249.000
 24  7 14  0 37 29.0000000  0  1R16
  -2020292.027    -1571342.071    26896743.815    26896759.684
       503.000         283.000
 24  7 14  0 37 30.0000000  0  1R16
  -2045206.753    -1590720.393    26892079.993    26892096.791
       504.000         302.000
 24  7 14  0 37 31.0000000  0  1R16
  -2070134.129    -1610107.988    26887413.320    26887431.511
       394.000         204.000
 24  7 14  0 37 32.0000000  0  1R16
  -2095073.972    -1629505.360    26882744.929    26882761.601
       482.000         307.000
 24  7 14  0 37 33.0000000  0  1R16
  -2120026.269    -1648912.926    26878073.863    26878090.407
       479.000         270.000
 24  7 14  0 37 34.0000000  0  1R16
  -2144991.125    -1668330.099    26873401.103    26873417.302
       476.000         314.000
 24  7 14  0 37 35.0000000  0  1R16
  -2169968.724    -1687757.337    26868724.783    26868741.481
       427.000         242.000
 24  7 14  0 37 36.0000000  0  1R16
  -2194958.755    -1707194.259    26864046.741    26864063.798
       448.000         260.000
 24  7 14  0 37 37.0000000  0  1R16
  -2219961.131    -1726640.670    26859366.650    26859383.146
       487.000         271.000
 24  7 14  0 37 38.0000000  0  1R16
  -2244975.949    -1746096.722    26854683.907    26854700.807
       491.000         298.000
 24  7 14  0 37 39.0000000  0  1R16
  -2270003.428    -1765562.771    26849998.815    26850015.470
       519.000         326.000
 24  7 14  0 37 40.0000000  0  1R16
  -2295043.570    -1785038.886    26845311.764    26845329.004
       443.000         235.000
 24  7 14  0 37 41.0000000  0  1R16
  -2320095.804    -1804524.458    26840621.654    26840638.479
       396.000         213.000
 24  7 14  0 37 42.0000000  0  1R16
  -2345160.048    -1824018.769    26835929.491    26835946.948
       534.000         342.000
 24  7 14  0 37 43.0000000  0  1R16
  -2370237.416    -1843523.806    26831235.287    26831253.291
       342.000         201.000
 24  7 14  0 37 44.0000000  0  1R16
  -2395326.898    -1863038.872    26826537.934    26826554.602
       421.000         277.000
 24  7 14  0 37 45.0000000  0  1R16
  -2420428.738    -1882562.266    26821839.572    26821857.195
       498.000         300.000
 24  7 14  0 37 46.0000000  0  1R16
  -2445542.804    -1902095.578    26817137.784    26817154.888
       455.000         240.000
 24  7 14  0 37 47.0000000  0  1R16
  -2470668.799    -1921638.163    26812434.413    26812452.198
       515.000         323.000
 24  7 14  0 37 48.0000000  0  1R16
  -2495806.624    -1941190.471    26807728.737    26807746.339
       355.000         213.000
 24  7 14  0 37 49.0000000  0  1R16
  -2520957.072    -1960751.787    26803020.193    26803037.068
       506.000         291.000
 24  7 14  0 37 50.0000000  0  1R16
  -2546120.089    -1980323.033    26798309.793    26798326.966
       496.000         291.000
 24  7 14  0 37 51.0000000  0  1R16
  -2571295.466    -1999903.397    26793596.570    26793614.736
       408.000         231.000
 24  7 14  0 37 52.0000000  0  1R16
  -2596483.139    -2019494.389    26788881.242    26788898.949
       432.000         274.000
 24  7 14  0 37 53.0000000  0  1R16
  -2621683.141    -2039094.348    26784164.213    26784181.558
       458.000         230.000
 24  7 14  0 37 54.0000000  0  1R16
  -2646895.090    -2058702.716    26779444.232    26779461.577
       489.000         309.000
 24  7 14  0 37 55.0000000  0  1R16
  -2672119.297    -2078321.563    26774722.519    26774739.143
       457.000         269.000
 24  7 14  0 37 56.0000000  0  1R16
  -2697355.078    -2097949.181    26769997.908    26770015.002
       500.000         286.000
 24  7 14  0 37 57.0000000  0  1R16
  -2722603.383    -2117586.581    26765270.893    26765289.365
       512.000         301.000
 24  7 14  0 37 58.0000000  0  1R16
  -2747864.661    -2137234.512    26760542.396    26760560.767
       469.000         285.000
 24  7 14  0 37 59.0000000  0  1R16
  -2773138.698    -2156891.791    26755812.054    26755828.727
       465.000         263.000
 24  7 14  0 38  0.0000000  0  1R16
  -2798423.271    -2176557.033    26751078.412    26751096.137
       336.000         252.000
 24  7 14  0 38  1.0000000  0  1R16
  -2823719.896    -2196232.921    26746342.888    26746359.305
       475.000         262.000
 24  7 14  0 38  2.0000000  0  1R16
  -2849029.009    -2215917.031    26741604.918    26741621.976
       529.000         314.000
 24  7 14  0 38  3.0000000  0  1R16
  -2874350.233    -2235612.433    26736864.191    26736880.898
       440.000         261.000
 24  7 14  0 38  4.0000000  0  1R16
  -2899683.515    -2255316.106    26732122.300    26732139.427
       432.000         229.000
 24  7 14  0 38  5.0000000  0  1R16
  -2925028.738    -2275029.172    26727376.994    26727394.251
       470.000         274.000
 24  7 14  0 38  6.0000000  0  1R16
  -2950385.470    -2294750.737    26722630.483    26722647.940
       484.000         323.000
 24  7 14  0 38  7.0000000  0  1R16
  -2975754.769    -2314481.428    26717881.218    26717897.131
       452.000         251.000
 24  7 14  0 38  8.0000000  0  1R16
  -3001136.095    -2334221.507    26713129.692    26713147.961
       419.000         239.000
 24  7 14  0 38  9.0000000  0  1R16
  -3026528.941    -2353971.718    26708375.962    26708394.180
       428.000         230.000
 24  7 14  0 38 10.0000000  0  1R16
  -3051933.765    -2373731.565    26703620.274    26703637.415
       553.000         346.000
 24  7 14  0 38 11.0000000  0  1R16
  -3077351.007    -2393500.717    26698862.236    26698879.879
       374.000         192.000
 24  7 14  0 38 12.0000000  0  1R16
  -3102779.304    -2413277.948    26694101.546    26694119.359
       499.000         289.000
 24  7 14  0 38 13.0000000  0  1R16
  -3128220.171    -2433065.299    26689337.957    26689357.452
       423.000         245.000
 24  7 14  0 38 14.0000000  0  1R16
  -3153672.664    -2452861.633    26684574.454    26684591.320
       499.000         285.000
 24  7 14  0 38 15.0000000  0  1R16
  -3179136.951    -2472667.080    26679807.477    26679822.081
       487.000         264.000
 24  7 14  0 38 16.0000000  0  1R16
  -3204613.468    -2492481.705    26675038.058    26675055.574
       441.000         302.000
 24  7 14  0 38 17.0000000  0  1R16
  -3230101.556    -2512305.629    26670266.650    26670283.836
       505.000         293.000
 24  7 14  0 38 18.0000000  0  1R16
  -3255601.481    -2532138.900    26665492.938    26665510.360
       430.000         280.000
 24  7 14  0 38 19.0000000  0  1R16
  -3281112.759    -2551981.891    26660716.990    26660734.702
       478.000         297.000
 24  7 14  0 38 20.0000000  0  1R16
  -3306636.257    -2571832.380    26655938.430    26655958.115
       466.000         276.000
 24  7 14  0 38 21.0000000  0  1R16
  -3332171.454    -2591693.136    26651158.686    26651175.224
       455.000         271.000
 24  7 14  0 38 22.0000000  0  1R16
  -3357718.236    -2611562.810    26646376.140    26646393.528
       551.000         340.000
 24  7 14  0 38 23.0000000  0  1R16
  -3383277.135    -2631442.052    26641591.347    26641608.423
       461.000         266.000
 24  7 14  0 38 24.0000000  0  1R16
  -3408847.398    -2651330.026    26636804.816    26636822.420
       505.000         290.000
 24  7 14  0 38 25.0000000  0  1R16
  -3434429.446    -2671227.130    26632015.291    26632033.655
       441.000         232.000
 24  7 14  0 38 26.0000000  0  1R16
  -3460022.923    -2691133.116    26627224.456    26627241.347
       570.000         369.000
 24  7 14  0 38 27.0000000  0  1R16
  -3485628.760    -2711048.433    26622430.910    26622448.167
       316.000         170.000
 24  7 14  0 38 28.0000000  0  1R16
  -3511245.345    -2730972.374    26617635.541    26617652.434
       538.000         314.000
 24  7 14  0 38 29.0000000  0  1R16
  -3536874.133    -2750905.956    26612838.013    26612855.599
       496.000         303.000
 24  7 14  0 38 30.0000000  0  1R16
  -3562514.553    -2770848.644    26608037.959    26608055.487
       533.000         323.000
 24  7 14  0 38 31.0000000  0  1R16
  -3588166.824    -2790800.692    26603236.168    26603253.870
       431.000         242.000
 24  7 14  0 38 32.0000000  0  1R16
  -3613830.550    -2810761.576    26598431.743    26598448.560
       511.000         292.000
 24  7 14  0 38 33.0000000  0  1R16
  -3639505.815    -2830731.481    26593625.940    26593643.512
       505.000         309.000
 24  7 14  0 38 34.0000000  0  1R16
  -3665192.584    -2850710.338    26588817.208    26588834.387
       492.000         296.000
 24  7 14  0 38 35.0000000  0  1R16
  -3690890.847    -2870698.088    26584006.619    26584025.013
       501.000         283.000
 24  7 14  0 38 36.0000000  0  1R16
  -3716600.574    -2890694.757    26579193.727    26579211.665
       475.000         303.000
 24  7 14  0 38 37.0000000  0  1R16
  -3742321.693    -2910700.288    26574379.439    26574396.757
       515.000         296.000
 24  7 14  0 38 38.0000000  0  1R16
  -3768054.180    -2930714.571    26569561.791    26569580.012
       510.000         319.000
 24  7 14  0 38 39.0000000  0  1R16
  -3793798.190    -2950737.909    26564742.773    26564760.465
       485.000         274.000
 24  7 14  0 38 40.0000000  0  1R16
  -3819553.584    -2970770.036    26559921.373    26559940.096
       392.000         230.000
 24  7 14  0 38 41.0000000  0  1R16
  -3845320.201    -2990811.005    26555097.972    26555115.723
       497.000         285.000
 24  7 14  0 38 42.0000000  0  1R16
  -3871098.018    -3010860.366    26550272.184    26550290.132
       547.000         333.000
 24  7 14  0 38 43.0000000  0  1R16
  -3896887.419    -3030918.931    26545444.610    26545462.701
       510.000         290.000
 24  7 14  0 38 44.0000000  0  1R16
  -3922688.348    -3050986.502    26540614.509    26540632.241
       461.000         285.000
 24  7 14  0 38 45.0000000  0  1R16
  -3948500.416    -3071062.792    26535783.039    26535800.616
       533.000         338.000
 24  7 14  0 38 46.0000000  0  1R16
  -3974323.986    -3091147.981    26530948.421    26530966.624
       435.000         257.000
 24  7 14  0 38 47.0000000  0  1R16
  -4000158.651    -3111241.863    26526112.474    26526129.983
       530.000         260.000
 24  7 14  0 38 48.0000000  0  1R16
  -4026004.619    -3131344.350    26521274.281    26521292.365
       520.000         340.000
 24  7 14  0 38 49.0000000  0  1R16
  -4051862.057    -3151456.028    26516434.042    26516451.557
       471.000         265.000
 24  7 14  0 38 50.0000000  0  1R16
  -4077730.254    -3171575.873    26511591.525    26511609.944
       532.000         304.000
 24  7 14  0 38 51.0000000  0  1R16
  -4103610.024    -3191704.708    26506746.903    26506765.081
       506.000         311.000
 24  7 14  0 38 52.0000000  0  1R16
  -4129500.975    -3211842.367    26501900.201    26501918.301
       426.000         256.000
 24  7 14  0 38 53.0000000  0  1R16
  -4155402.853    -3231988.450    26497051.021    26497069.762
       508.000         308.000
 24  7 14  0 38 54.0000000  0  1R16
  -4181315.841    -3252143.123    26492200.379    26492218.366
       467.000         198.000
 24  7 14  0 38 55.0000000  0  1R16
  -4207239.969    -3272306.343    26487347.382    26487366.189
       510.000         346.000
 24  7 14  0 38 56.0000000  0  1R16
  -4233175.392    -3292478.507    26482492.647    26482511.078
       430.000         234.000
 24  7 14  0 38 57.0000000  0  1R16
  -4259121.669    -3312659.116    26477635.083    26477653.778
       566.000         321.000
 24  7 14  0 38 58.0000000  0  1R16
  -4285079.113    -3332848.291    26472776.221    26472794.268
       546.000         326.000
 24  7 14  0 38 59.0000000  0  1R16
  -4311047.710    -3353046.184    26467914.902    26467933.168
       381.000         241.000
 24  7 14  0 39  0.0000000  0  1R16
  -4337027.373    -3373253.366    26463051.710    26463070.403
       502.000         277.000
 24  7 14  0 39  1.0000000  0  1R16
  -4363017.958    -3393468.343    26458186.162    26458205.094
       479.000         286.000
 24  7 14  0 39  2.0000000  0  1R16
  -4389019.483    -3413691.881    26453318.773    26453337.504
       608.000         393.000
 24  7 14  0 39  3.0000000  0  1R16
  -4415032.056    -3433923.966    26448449.386    26448467.613
       474.000         276.000
 24  7 14  0 39  4.0000000  0  1R16
  -4441055.739    -3454164.815    26443577.907    26443596.187
       348.000         151.000
 24  7 14  0 39  5.0000000  0  1R16
  -4467090.052    -3474413.788    26438703.862    26438723.008
       553.000         371.000
 24  7 14  0 39  6.0000000  0  1R16
  -4493135.449    -3494671.433    26433828.409    26433846.990
       431.000         271.000
 24  7 14  0 39  7.0000000  0  1R16
  -4519191.548    -3514937.278    26428950.973    26428969.502
       506.000         269.000
 24  7 14  0 39  8.0000000  0  1R16
  -4545258.654    -3535211.717    26424070.507    26424089.538
       432.000         293.000
 24  7 14  0 39  9.0000000  0  1R16
  -4571336.717    -3555493.781    26419188.811    26419207.875
       565.000         331.000
 24  7 14  0 39 10.0000000  0  1R16
  -4597425.523    -3575785.097    26414304.942    26414323.014
       429.000         244.000
 24  7 14  0 39 11.0000000  0  1R16
  -4623525.189    -3596084.969    26409419.427    26409437.999
       550.000         312.000
 24  7 14  0 39 12.0000000  0  1R16
  -4649635.671    -3616393.239    26404531.861    26404550.232
       410.000         267.000
 24  7 14  0 39 13.0000000  0  1R16
  -4675756.762    -3636709.605    26399641.257    26399659.953
       660.000         424.000
 24  7 14  0 39 14.0000000  0  1R16
  -4701888.969    -3657034.767    26394749.505    26394767.804
       400.000         207.000
 24  7 14  0 39 15.0000000  0  1R16
  -4728031.641    -3677367.953    26389855.554    26389874.180
       496.000         302.000
 24  7 14  0 39 16.0000000  0  1R16
  -4754185.153    -3697709.635    26384959.468    26384977.861
       482.000         285.000
 24  7 14  0 39 17.0000000  0  1R16
  -4780349.176    -3718059.348    26380061.919    26380080.098
       489.000         310.000
 24  7 14  0 39 18.0000000  0  1R16
  -4806523.982    -3738417.437    26375161.724    26375180.255
       557.000         290.000
 24  7 14  0 39 19.0000000  0  1R16
  -4832709.536    -3758784.009    26370259.518    26370278.679
       582.000         378.000
 24  7 14  0 39 20.0000000  0  1R16
  -4858905.690    -3779158.843    26365355.621    26365374.555
       598.000         468.000
 24  7 14  0 39 21.0000000  0  1R16
  -4885112.699    -3799542.112    26360449.510    26360468.322
       457.000         238.000
 24  7 14  0 39 22.0000000  0  1R16
  -4911330.332    -3819933.732    26355541.898    26355560.160
       413.000         195.000
 24  7 14  0 39 23.0000000  0  1R16
  -4937558.458    -3840333.367    26350631.880    26350650.528
       494.000         317.000
 24  7 14  0 39 24.0000000  0  1R16
  -4963797.248    -3860741.401    26345719.965    26345739.055
       472.000         267.000
 24  7 14  0 39 25.0000000  0  1R16
  -4990046.660    -3881157.671    26340805.663    26340824.328
       374.000         209.000
 24  7 14  0 39 26.0000000  0  1R16
  -5016306.423    -3901582.018    26335890.292    26335908.951
       591.000         333.000
 24  7 14  0 39 27.0000000  0  1R16
  -5042576.711    -3922014.465    26330972.134    26330991.030
       485.000         368.000
 24  7 14  0 39 28.0000000  0  1R16
  -5068857.687    -3942455.330    26326052.187    26326071.906
       449.000         340.000
 24  7 14  0 39 29.0000000  0  1R16
  -5095149.185    -3962904.350    26321131.029    26321149.779
       416.000         307.000
 24  7 14  0 39 30.0000000  0  1R16
  -5121451.109    -3983361.494    26316206.839    26316226.257
       525.000         363.000
 24  7 14  0 39 31.0000000  0  1R16
  -5147763.449    -4003826.692    26311281.579    26311300.385
       475.000         335.000
 24  7 14  0 39 32.0000000  0  1R16
  -5174086.233    -4024299.976    26306353.995    26306372.770
       531.000         305.000
 24  7 14  0 39 33.0000000  0  1R16
  -5200419.424    -4044781.449    26301424.256    26301443.529
       561.000         345.000
 24  7 14  0 39 34.0000000  0  1R16
  -5226762.924    -4065270.890    26296492.639    26296511.807
       613.000         447.000
 24  7 14  0 39 35.0000000  0  1R16
  -5253116.844    -4085768.381    26291559.332    26291578.666
       469.000         305.000
 24  7 14  0 39 36.0000000  0  1R16
  -5279481.046    -4106273.938    26286623.452    26286642.512
       556.000         373.000
 24  7 14  0 39 37.0000000  0  1R16
  -5305855.562    -4126787.402    26281686.412    26281705.235
       490.000         299.000
 24  7 14  0 39 38.0000000  0  1R16
  -5332240.331    -4147308.870    26276747.154    26276765.729
       590.000         338.000
 24  7 14  0 39 39.0000000  0  1R16
  -5358635.349    -4167838.348    26271806.013    26271824.744
       609.000         307.000
 24  7 14  0 39 40.0000000  0  1R16
  -5385040.722    -4188375.737    26266862.795    26266881.549
       587.000         359.000
 24  7 14  0 39 41.0000000  0  1R16
  -5411456.222    -4208921.090    26261917.662    26261936.266
       545.000         295.000
 24  7 14  0 39 42.0000000  0  1R16
  -5437881.894    -4229474.275    26256970.447    26256989.596
       525.000         382.000
 24  7 14  0 39 43.0000000  0  1R16
  -5464317.815    -4250035.368    26252021.587    26252040.574
       629.000         291.000
 24  7 14  0 39 44.0000000  0  1R16
  -5490763.979    -4270604.594    26247070.786    26247089.498
       605.000         347.000
 24  7 14  0 39 45.0000000  0  1R16
  -5517220.361    -4291181.689    26242117.936    26242137.395
       415.000         274.000
 24  7 14  0 39 46.0000000  0  1R16
  -5543686.816    -4311766.733    26237163.401    26237182.325
       416.000         240.000
 24  7 14  0 39 47.0000000  0  1R16
  -5570163.333    -4332359.480    26232206.624    26232226.032
       576.000         344.000
 24  7 14  0 39 48.0000000  0  1R16
  -5596650.002    -4352960.014    26227248.146    26227266.874
       609.000         335.000
 24  7 14  0 39 49.0000000  0  1R16
  -5623146.744    -4373568.428    26222287.980    26222306.286
       586.000         333.000
 24  7 14  0 39 50.0000000  0  1R16
  -5649653.590    -4394184.727    26217325.982    26217345.681
       505.000         334.000
 24  7 14  0 39 51.0000000  0  1R16
  -5676170.510    -4414808.960    26212361.453    26212380.503
       447.000         247.000
 24  7 14  0 39 52.0000000  0  1R16
  -5702697.507    -4435440.929    26207395.627    26207415.340
       313.000         162.000
 24  7 14  0 39 53.0000000  0  1R16
  -5729234.367    -4456080.504    26202427.940    26202446.436
       288.000         128.000
 24  7 14  0 39 54.0000000  0  1R16
  -5755781.339    -4476728.110    26197458.086    26197477.376
       328.000         244.000
 24  7 14  0 39 55.0000000  0  1R16
  -5782338.142    -4497383.222    26192486.266    26192505.113
       511.000         395.000
 24  7 14  0 39 56.0000000  0  1R16
  -5808904.953    -4518046.151    26187512.812    26187532.182
       582.000         344.000
 24  7 14  0 39 57.0000000  0  1R16
  -5835481.690    -4538716.771    26182537.701    26182556.230
       609.000         355.000
 24  7 14  0 39 58.0000000  0  1R16
  -5862068.302    -4559395.082    26177560.450    26177579.142
       586.000         390.000
 24  7 14  0 39 59.0000000  0  1R16
  -5888664.861    -4580081.126    26172581.505    26172599.911
       460.000         271.000
 24  7 14  0 40  0.0000000  0  1R16
  -5915271.331    -4600774.951    26167600.903    26167619.067
       502.000         267.000
 24  7 14  0 40  1.0000000  0  1R16
  -5941887.648    -4621476.370    26162617.726    26162636.664
       398.000         217.000
 24  7 14  0 40  2.0000000  0  1R16
  -5968513.779    -4642185.494    26157633.189    26157651.594
       568.000         372.000
 24  7 14  0 40  3.0000000  0  1R16
  -5995149.712    -4662902.142    26152646.840    26152665.031
       427.000         294.000
 24  7 14  0 40  4.0000000  0  1R16
  -6021795.436    -4683626.458    26147658.623    26147677.063
       638.000         435.000
 24  7 14  0 40  5.0000000  0  1R16
  -6048450.935    -4704358.291    26142668.478    26142687.040
       546.000         317.000
 24  7 14  0 40  6.0000000  0  1R16
  -6075116.215    -4725097.763    26137676.697    26137694.679
       414.000         215.000
 24  7 14  0 40  7.0000000  0  1R16
  -6101791.181    -4745844.798    26132682.864    26132701.726
       587.000         320.000
 24  7 14  0 40  8.0000000  0  1R16
  -6128476.000    -4766599.564    26127687.639    26127705.223
       412.000         278.000
 24  7 14  0 40  9.0000000  0  1R16
  -6155170.556    -4787361.875    26122690.691    26122708.175
       346.000         222.000
 24  7 14  0 40 10.0000000  0  1R16
  -6181874.787    -4808131.764    26117690.749    26117708.657
       424.000         280.000
 24  7 14  0 40 11.0000000  0  1R16
  -6208588.668    -4828909.177    26112689.862    26112708.182
       486.000         326.000
 24  7 14  0 40 12.0000000  0  1R16
  -6235312.225    -4849694.119    26107687.351    26107704.952
       533.000         315.000
 24  7 14  0 40 13.0000000  0  1R16
  -6262045.363    -4870486.446    26102682.472    26102700.591
       566.000         349.000
 24  7 14  0 40 14.0000000  0  1R16
  -6288788.147    -4891286.348    26097676.240    26097694.061
       580.000         414.000
 24  7 14  0 40 15.0000000  0  1R16
  -6315540.564    -4912093.768    26092667.969    26092686.160
       666.000         469.000
 24  7 14  0 40 16.0000000  0  1R16
  -6342302.539    -4932908.644    26087658.236    26087676.462
       767.000         531.000
 24  7 14  0 40 17.0000000  0  1R16
  -6369074.102    -4953730.971    26082646.729    26082664.755
       663.000         420.000
 24  7 14  0 40 18.0000000  0  1R16
  -6395855.138    -4974560.646    26077632.958    26077651.036
       492.000         310.000
 24  7 14  0 40 19.0000000  0  1R16
  -6422645.588    -4995397.615    26072617.723    26072635.836
       583.000         377.000
 24  7 14  0 40 20.0000000  0  1R16
  -6449445.541    -5016241.984    26067600.698    26067618.757
       551.000         363.000
 24  7 14  0 40 21.0000000  0  1R16
  -6476254.957    -5037093.714    26062582.011    26062600.104
       577.000         377.000
 24  7 14  0 40 22.0000000  0  1R16
  -6503073.698    -5057952.681    26057561.312    26057579.292
       621.000         428.000
 24  7 14  0 40 23.0000000  0  1R16
  -6529901.900    -5078819.028    26052539.005    26052556.762
       583.000         378.000
 24  7 14  0 40 24.0000000  0  1R16
  -6556739.502    -5099692.669    26047515.144    26047532.890
       481.000         303.000
 24  7 14  0 40 25.0000000  0  1R16
  -6583586.312    -5120573.418    26042489.365    26042507.179
       542.000         354.000
 24  7 14  0 40 26.0000000  0  1R16
  -6610442.496    -5141461.491    26037461.312    26037479.141
       533.000         316.000
 24  7 14  0 40 27.0000000  0  1R16
  -6637308.017    -5162356.811    26032432.210    26032450.340
       522.000         324.000
 24  7 14  0 40 28.0000000  0  1R16
  -6664182.743    -5183259.242    26027401.031    26027419.157
       493.000         344.000
 24  7 14  0 40 29.0000000  0  1R16
  -6691066.672    -5204168.765    26022368.275    26022386.427
       599.000         380.000
 24  7 14  0 40 30.0000000  0  1R16
  -6717959.808    -5225085.441    26017333.600    26017351.314
       615.000         414.000
 24  7 14  0 40 31.0000000  0  1R16
  -6744862.207    -5246009.327    26012297.182    26012314.864
       523.000         347.000
 24  7 14  0 40 32.0000000  0  1R16
  -6771773.811    -5266940.387    26007258.960    26007276.955
       552.000         341.000
 24  7 14  0 40 33.0000000  0  1R16
  -6798694.507    -5287878.452    26002219.247    26002236.530
       492.000         327.000
 24  7 14  0 40 34.0000000  0  1R16
  -6825624.399    -5308823.715    25997178.132    25997195.437
       509.000         306.000
 24  7 14  0 40 35.0000000  0  1R16
  -6852563.425    -5329776.058    25992134.882    25992152.313
       510.000         329.000
 24  7 14  0 40 36.0000000  0  1R16
  -6879511.537    -5350735.418    25987089.405    25987107.383
       490.000         307.000
 24  7 14  0 40 37.0000000  0  1R16
  -6906468.790    -5371701.916    25982043.058    25982060.110
       502.000         308.000
 24  7 14  0 40 38.0000000  0  1R16
  -6933435.216    -5392675.583    25976994.581    25977011.714
       513.000         329.000
 24  7 14  0 40 39.0000000  0  1R16
  -6960410.731    -5413656.309    25971944.777    25971962.217
       556.000         388.000
 24  7 14  0 40 40.0000000  0  1R16
  -6987395.367    -5434644.169    25966893.051    25966910.558
       607.000         388.000
 24  7 14  0 40 41.0000000  0  1R16
  -7014389.050    -5455639.068    25961839.440    25961856.966
       529.000         340.000
 24  7 14  0 40 42.0000000  0  1R16
  -7041391.728    -5476640.979    25956784.492    25956801.463
       548.000         389.000
 24  7 14  0 40 43.0000000  0  1R16
  -7068403.422    -5497649.946    25951727.953    25951744.885
       503.000         338.000
 24  7 14  0 40 44.0000000  0  1R16
  -7095424.011    -5518665.789    25946669.024    25946686.521
       540.000         362.000
 24  7 14  0 40 45.0000000  0  1R16
  -7122453.563    -5539688.575    25941609.235    25941626.363
       471.000         307.000
 24  7 14  0 40 46.0000000  0  1R16
  -7149492.060    -5560718.377    25936547.455    25936564.219
       527.000         324.000
 24  7 14  0 40 47.0000000  0  1R16
  -7176539.472    -5581755.080    25931483.852    25931500.861
       496.000         311.000
 24  7 14  0 40 48.0000000  0  1R16
  -7203595.669    -5602798.610    25926419.124    25926435.427
       534.000         352.000
 24  7 14  0 40 49.0000000  0  1R16
  -7230660.779    -5623849.069    25921352.261    25921368.650
       544.000         356.000
 24  7 14  0 40 50.0000000  0  1R16
  -7257734.621    -5644906.300    25916283.605    25916300.324
       559.000         368.000
 24  7 14  0 40 51.0000000  0  1R16
  -7284817.304    -5665970.392    25911213.549    25911230.445
       492.000         293.000
 24  7 14  0 40 52.0000000  0  1R16
  -7311908.739    -5687041.306    25906141.748    25906158.596
       578.000         363.000
 24  7 14  0 40 53.0000000  0  1R16
  -7339008.860    -5708118.911    25901068.483    25901085.118
       558.000         397.000
 24  7 14  0 40 54.0000000  0  1R16
  -7366117.786    -5729203.380    25895993.543    25896010.112
       492.000         328.000
 24  7 14  0 40 55.0000000  0  1R16
  -7393235.468    -5750294.702    25890916.902    25890933.020
       513.000         335.000
 24  7 14  0 40 56.0000000  0  1R16
  -7420361.951    -5771392.912    25885838.481    25885854.697
       515.000         331.000
 24  7 14  0 40 57.0000000  0  1R16
  -7447497.181    -5792497.945    25880758.786    25880774.614
       503.000         321.000
 24  7 14  0 40 58.0000000  0  1R16
  -7474641.060    -5813609.713    25875677.326    25875693.641
       531.000         354.000
 24  7 14  0 40 59.0000000  0  1R16
  -7501793.561    -5834728.165    25870593.959    25870610.064
       520.000         325.000
 24  7 14  0 41  0.0000000  0  1R16
  -7528954.690    -5855853.337    25865509.439    25865525.886
       499.000         305.000
 24  7 14  0 41  1.0000000  0  1R16
  -7556124.301    -5876985.049    25860422.564    25860439.341
       533.000         330.000
 24  7 14  0 41  2.0000000  0  1R16
  -7583302.538    -5898123.501    25855335.206    25855351.311
       520.000         350.000
 24  7 14  0 41  3.0000000  0  1R16
  -7610489.378    -5919268.682    25850245.372    25850261.362
       510.000         333.000
 24  7 14  0 41  4.0000000  0  1R16
  -7637684.781    -5940420.513    25845154.474    25845170.250
       511.000         311.000
 24  7 14  0 41  5.0000000  0  1R16
  -7664888.586    -5961578.829    25840061.386    25840077.879
       540.000         361.000
 24  7 14  0 41  6.0000000  0  1R16
  -7692101.029    -5982743.943    25834967.026    25834983.395
       523.000         335.000
 24  7 14  0 41  7.0000000  0  1R16
  -7719321.847    -6003915.521    25829871.647    25829887.446
       509.000         328.000
 24  7 14  0 41  8.0000000  0  1R16
  -7746551.097    -6025093.694    25824773.669    25824789.764
       544.000         371.000
 24  7 14  0 41  9.0000000  0  1R16
  -7773788.826    -6046278.449    25819674.901    25819690.981
       530.000         365.000
 24  7 14  0 41 10.0000000  0  1R16
  -7801034.986    -6067469.779    25814574.154    25814590.660
       522.000         346.000
 24  7 14  0 41 11.0000000  0  1R16
  -7828289.464    -6088667.573    25809471.935    25809488.151
       544.000         366.000
 24  7 14  0 41 12.0000000  0  1R16
  -7855552.258    -6109871.804    25804368.265    25804383.854
       552.000         356.000
 24  7 14  0 41 13.0000000  0  1R16
  -7882823.432    -6131082.584    25799262.580    25799278.461
       524.000         348.000
 24  7 14  0 41 14.0000000  0  1R16
  -7910102.902    -6152299.804    25794155.890    25794172.224
       534.000         348.000
 24  7 14  0 41 15.0000000  0  1R16
  -7937390.708    -6173523.515    25789047.672    25789063.494
       497.000         314.000
 24  7 14  0 41 16.0000000  0  1R16
  -7964686.729    -6194753.602    25783937.624    25783953.804
       540.000         358.000
 24  7 14  0 41 17.0000000  0  1R16
  -7991991.007    -6215990.113    25778826.144    25778841.922
       531.000         345.000
 24  7 14  0 41 18.0000000  0  1R16
  -8019303.454    -6237232.972    25773713.124    25773728.907
       537.000         363.000
 24  7 14  0 41 19.0000000  0  1R16
  -8046624.141    -6258482.250    25768598.657    25768613.670
       524.000         336.000
 24  7 14  0 41 20.0000000  0  1R16
  -8073952.953    -6279737.829    25763482.540    25763498.281
       514.000         332.000
 24  7 14  0 41 21.0000000  0  1R16
  -8101289.956    -6300999.788    25758364.424    25758380.756
       555.000         363.000
 24  7 14  0 41 22.0000000  0  1R16
  -8128635.058    -6322268.029    25753245.267    25753261.328
       551.000         366.000
 24  7 14  0 41 23.0000000  0  1R16
  -8155988.232    -6343542.543    25748124.529    25748140.588
       553.000         365.000
 24  7 14  0 41 24.0000000  0  1R16
  -8183349.439    -6364823.287    25743002.286    25743017.787
       555.000         372.000
 24  7 14  0 41 25.0000000  0  1R16
  -8210718.743    -6386110.327    25737878.632    25737894.073
       505.000         334.000
 24  7 14  0 41 26.0000000  0  1R16
  -8238096.110    -6407403.677    25732753.533    25732768.711
       541.000         352.000
 24  7 14  0 41 27.0000000  0  1R16
  -8265481.499    -6428703.247    25727626.817    25727642.053
       572.000         383.000
 24  7 14  0 41 28.0000000  0  1R16
  -8292874.895    -6450009.044    25722498.510    25722514.379
       549.000         369.000
 24  7 14  0 41 29.0000000  0  1R16
  -8320276.326    -6471321.122    25717369.023    25717383.961
       557.000         371.000
 24  7 14  0 41 30.0000000  0  1R16
  -8347685.625    -6492639.299    25712237.914    25712253.286
       550.000         377.000
 24  7 14  0 41 31.0000000  0  1R16
  -8375102.866    -6513963.666    25707105.174    25707120.760
       551.000         366.000
 24  7 14  0 41 32.0000000  0  1R16
  -8402528.019    -6535294.192    25701970.713    25701986.221
       535.000         348.000
 24  7 14  0 41 33.0000000  0  1R16
  -8429961.083    -6556630.887    25696835.018    25696850.668
       527.000         341.000
 24  7 14  0 41 34.0000000  0  1R16
  -8457401.970    -6577973.635    25691698.163    25691713.335
       529.000         351.000
 24  7 14  0 41 35.0000000  0  1R16
  -8484850.677    -6599322.466    25686559.235    25686574.638
       561.000         373.000
 24  7 14  0 41 36.0000000  0  1R16
  -8512307.201    -6620677.379    25681419.391    25681434.618
       553.000         370.000
 24  7 14  0 41 37.0000000  0  1R16
  -8539771.500    -6642038.337    25676277.868    25676293.178
       531.000         349.000
 24  7 14  0 41 38.0000000  0  1R16
  -8567243.604    -6663405.377    25671134.905    25671150.009
       533.000         347.000
 24  7 14  0 41 39.0000000  0  1R16
  -8594723.447    -6684778.418    25665990.693    25666005.750
       547.000         359.000
 24  7 14  0 41 40.0000000  0  1R16
  -8622211.002    -6706157.446    25660844.707    25660859.910
       540.000         354.000
 24  7 14  0 41 41.0000000  0  1R16
  -8649706.278    -6727542.489    25655697.343    25655712.155
       519.000         336.000
 24  7 14  0 41 42.0000000  0  1R16
  -8677209.151    -6748933.420    25650548.665    25650563.949
       536.000         351.000
 24  7 14  0 41 43.0000000  0  1R16
  -8704719.636    -6770330.267    25645398.661    25645413.283
       563.000         368.000
 24  7 14  0 41 44.0000000  0  1R16
  -8732237.795    -6791733.100    25640246.827    25640261.794
       564.000         379.000
 24  7 14  0 41 45.0000000  0  1R16
  -8759763.542    -6813141.817    25635093.699    25635109.434
       541.000         352.000
 24  7 14  0 41 46.0000000  0  1R16
  -8787296.895    -6834556.450    25629939.483    25629954.236
       542.000         352.000
 24  7 14  0 41 47.0000000  0  1R16
  -8814837.822    -6855976.984    25624783.432    25624798.528
       562.000         370.000
 24  7 14  0 41 48.0000000  0  1R16
  -8842386.319    -6877403.408    25619626.270    25619640.868
       543.000         358.000
 24  7 14  0 41 49.0000000  0  1R16
  -8869942.292    -6898835.649    25614467.488    25614482.233
       556.000         371.000
 24  7 14  0 41 50.0000000  0  1R16
  -8897505.686    -6920273.627    25609307.750    25609322.004
       541.000         361.000
 24  7 14  0 41 51.0000000  0  1R16
  -8925076.580    -6941717.466    25604146.142    25604160.480
       562.000         370.000
 24  7 14  0 41 52.0000000  0  1R16
  -8952654.911    -6963167.063    25598982.535    25598997.632
       549.000         365.000
 24  7 14  0 41 53.0000000  0  1R16
  -8980240.680    -6984622.470    25593818.579    25593833.290
       550.000         366.000
 24  7 14  0 41 54.0000000  0  1R16
  -9007833.826    -7006083.597    25588653.134    25588667.769
       573.000         387.000
 24  7 14  0 41 55.0000000  0  1R16
  -9035434.288    -7027550.399    25583486.366    25583501.108
       570.000         383.000
 24  7 14  0 41 56.0000000  0  1R16
  -9063042.138    -7049022.971    25578317.906    25578332.537
       556.000         367.000
 24  7 14  0 41 57.0000000  0  1R16
  -9090657.289    -7070501.213    25573148.220    25573161.741
       545.000         358.000
 24  7 14  0 41 58.0000000  0  1R16
  -9118279.773    -7091985.162    25567976.604    25567990.549
       558.000         364.000
 24  7 14  0 41 59.0000000  0  1R16
  -9145909.571    -7113474.801    25562804.413    25562818.620
       553.000         370.000
 24  7 14  0 42  0.0000000  0  1R16
  -9173546.634    -7134970.088    25557630.514    25557644.826
       551.000         363.000
 24  7 14  0 42  1.0000000  0  1R16
  -9201190.927    -7156470.998    25552455.281    25552469.309
       562.000         373.000
 24  7 14  0 42  2.0000000  0  1R16
  -9228842.433    -7177977.538    25547278.905    25547292.986
       555.000         367.000
 24  7 14  0 42  3.0000000  0  1R16
  -9256501.091    -7199489.629    25542101.116    25542114.524
       554.000         356.000
 24  7 14  0 42  4.0000000  0  1R16
  -9284166.915    -7221007.300    25536922.011    25536934.927
       566.000         378.000
 24  7 14  0 42  5.0000000  0  1R16
  -9311839.893    -7242530.527    25531741.186    25531754.760
       557.000         374.000
 24  7 14  0 42  6.0000000  0  1R16
  -9339520.029    -7264059.338    25526559.147    25526572.756
       565.000         381.000
 24  7 14  0 42  7.0000000  0  1R16
  -9367207.266    -7285593.664    25521375.778    25521389.376
       548.000         358.000
 24  7 14  0 42  8.0000000  0  1R16
  -9394901.544    -7307133.461    25516191.053    25516205.205
       573.000         378.000
 24  7 14  0 42  9.0000000  0  1R16
  -9422602.879    -7328678.759    25511005.759    25511019.611
       561.000         372.000
 24  7 14  0 42 10.0000000  0  1R16
  -9450311.185    -7350229.474    25505818.383    25505832.189
       553.000         352.000
 24  7 14  0 42 11.0000000  0  1R16
  -9478026.469    -7371785.578    25500629.787    25500642.844
       561.000         368.000
 24  7 14  0 42 12.0000000  0  1R16
  -9505748.645    -7393347.118    25495439.983    25495453.328
       553.000         359.000
 24  7 14  0 42 13.0000000  0  1R16
  -9533477.874    -7414914.043    25490248.661    25490262.521
       579.000         380.000
 24  7 14  0 42 14.0000000  0  1R16
  -9561213.970    -7436486.352    25485056.109    25485069.532
       562.000         363.000
 24  7 14  0 42 15.0000000  0  1R16
  -9590280.366    -7459093.312    25479615.120    25479628.498
       552.000         358.000
 24  7 14  0 42 16.0000000  0  1R16
  -9618030.546    -7480676.555    25474419.903    25474433.184
       560.000         364.000
 24  7 14  0 42 17.0000000  0  1R16
  -9645787.558    -7502265.128    25469223.665    25469236.873
       560.000         365.000
 24  7 14  0 42 18.0000000  0  1R16
  -9673551.442    -7523859.051    25464025.960    25464039.266
       563.000         366.000
 24  7 14  0 42 19.0000000  0  1R16
  -9701322.143    -7545458.289    25458827.235    25458840.103
       560.000         365.000
 24  7 14  0 42 20.0000000  0  1R16
  -9729099.632    -7567062.815    25453627.141    25453639.762
       575.000         363.000
 24  7 14  0 42 21.0000000  0  2R05R16
   -165897.095     -129034.603    27209698.766    27209710.950
       354.000         311.000
  -9756883.811    -7588672.615    25448425.537    25448438.560
       573.000         370.000
 24  7 14  0 42 22.0000000  0  2R05R16
   -189954.083     -147746.361    27205198.835    27205211.734
       354.000         307.000
  -9784674.778    -7610287.590    25443223.055    25443236.231
       559.000         365.000
 24  7 14  0 42 23.0000000  0  2R05R16
   -214022.504     -166466.945    27200697.202    27200709.552
       350.000         298.000
  -9812472.531    -7631907.815    25438019.352    25438031.981
       577.000         376.000
 24  7 14  0 42 24.0000000  0  2R05R16
   -238102.350     -185196.281    27196193.179    27196205.725
       356.000         313.000
  -9840276.883    -7653533.290    25432813.915    25432826.509
       567.000         361.000
 24  7 14  0 42 25.0000000  0  2R05R16
   -262193.494     -203934.262    27191686.331    27191699.289
       359.000         312.000
  -9868087.974    -7675163.943    25427607.370    25427619.791
       561.000         363.000
 24  7 14  0 42 26.0000000  0  2R05R16
   -286296.475     -222681.537    27187178.206    27187190.699
       355.000         308.000
  -9895905.641    -7696799.737    25422399.728    25422412.273
       570.000         373.000
 24  7 14  0 42 27.0000000  0  2R05R16
   -310411.306     -241438.139    27182667.638    27182680.060
       361.000         314.000
  -9923729.930    -7718440.672    25417191.142    25417204.041
       576.000         375.000
 24  7 14  0 42 28.0000000  0  2R05R16
   -334537.867     -260203.891    27178154.580    27178167.830
       356.000         311.000
  -9951560.802    -7740086.726    25411981.002    25411993.163
       573.000         377.000
 24  7 14  0 42 29.0000000  0  2R05R16
   -358675.734     -278978.263    27173639.281    27173652.439
       358.000         315.000
  -9979398.251    -7761737.895    25406769.807    25406781.956
       571.000         375.000
 24  7 14  0 42 30.0000000  0  2R05R16
   -382825.235     -297761.684    27169121.731    27169135.320
       357.000         317.000
 -10007242.232    -7783394.145    25401556.996    25401569.378
       579.000         381.000
 24  7 14  0 42 31.0000000  0  2R05R16
   -406986.524     -316554.382    27164602.033    27164615.884
       361.000         315.000
 -10035092.758    -7805055.396    25396342.879    25396355.298
       577.000         379.000
 24  7 14  0 42 32.0000000  0  2R05R16
   -431159.709     -335356.471    27160080.797    27160094.668
       357.000         311.000
 -10062949.696    -7826721.786    25391128.170    25391140.235
       580.000         381.000
 24  7 14  0 42 33.0000000  0  2R05R16
   -455344.419     -354167.479    27155556.920    27155570.860
       362.000         310.000
 -10090813.100    -7848393.140    25385912.116    25385924.138
       574.000         370.000
 24  7 14  0 42 34.0000000  0  2R05R16
   -479540.700     -372987.488    27151030.966    27151045.094
       363.000         315.000
 -10118682.969    -7870069.568    25380694.689    25380706.497
       571.000         372.000
 24  7 14  0 42 35.0000000  0  2R05R16
   -503748.535     -391816.458    27146502.933    27146517.585
       361.000         313.000
 -10146559.211    -7891750.924    25375475.479    25375487.946
       571.000         371.000
 24  7 14  0 42 36.0000000  0  2R05R16
   -527967.789     -410654.224    27141972.998    27141986.489
       361.000         312.000
 -10174441.895    -7913437.245    25370255.705    25370268.139
       575.000         373.000
 24  7 14  0 42 37.0000000  0  2R05R16
   -552198.455     -429500.785    27137439.938    27137454.253
       363.000         315.000
 -10202330.893    -7935128.485    25365034.853    25365046.589
       571.000         373.000
 24  7 14  0 42 38.0000000  0  2R05R16
   -576440.558     -448356.192    27132906.256    27132919.891
       363.000         313.000
 -10230226.241    -7956824.676    25359812.645    25359824.646
       570.000         366.000
 24  7 14  0 42 39.0000000  0  2R05R16
   -600694.128     -467220.497    27128369.177    27128383.309
       363.000         316.000
 -10258127.890    -7978525.749    25354589.405    25354601.296
       579.000         378.000
 24  7 14  0 42 40.0000000  0  2R05R16
   -624959.069     -486093.582    27123829.896    27123844.056
       362.000         317.000
 -10286035.821    -8000231.703    25349364.624    25349376.573
       575.000         382.000
 24  7 14  0 42 41.0000000  0  2R05R16
   -649235.453     -504975.547    27119288.385    27119303.313
       363.000         318.000
 -10313950.032    -8021942.536    25344138.873    25344150.911
       573.000         374.000
 24  7 14  0 42 42.0000000  0  2R05R16
   -673523.251     -523866.346    27114745.190    27114760.275
       366.000         319.000
 -10341870.424    -8043658.216    25338912.013    25338923.982
       573.000         374.000
 24  7 14  0 42 43.0000000  0  2R05R16
   -697822.525     -542766.070    27110200.058    27110214.576
       362.000         317.000
 -10369797.038    -8065378.695    25333683.928    25333695.853
       572.000         370.000
 24  7 14  0 42 44.0000000  0  2R05R16
   -722133.256     -561674.696    27105652.209    27105667.372
       363.000         317.000
 -10397729.968    -8087104.084    25328454.829    25328466.782
       579.000         377.000
 24  7 14  0 42 45.0000000  0  2R05R16
   -746455.437     -580592.228    27101102.017    27101117.012
       366.000         315.000
 -10425669.027    -8108834.308    25323224.241    25323236.304
       590.000         382.000
 24  7 14  0 42 46.0000000  0  2R05R16
   -770789.040     -599518.631    27096550.263    27096565.760
       364.000         313.000
 -10453614.238    -8130569.260    25317992.668    25318004.794
       578.000         371.000
 24  7 14  0 42 47.0000000  0  2R05R16
   -795134.020     -618453.872    27091995.928    27092011.240
       365.000         315.000
 -10481565.556    -8152309.003    25312760.182    25312771.862
       577.000         371.000
 24  7 14  0 42 48.0000000  0  2R05R16
   -819490.397     -637397.984    27087440.099    27087455.653
       365.000         311.000
 -10509522.991    -8174053.501    25307526.190    25307538.231
       576.000         371.000
 24  7 14  0 42 49.0000000  0  2R05R16
   -843858.154     -656350.942    27082881.998    27082897.190
       367.000         312.000
 -10537486.505    -8195802.726    25302291.285    25302303.237
       581.000         372.000
 24  7 14  0 42 50.0000000  0  2R05R16
   -868237.306     -675312.773    27078321.656    27078336.296
       364.000         312.000
 -10565456.075    -8217556.669    25297055.245    25297066.821
       575.000         368.000
 24  7 14  0 42 51.0000000  0  2R05R16
   -892627.795     -694283.399    27073758.501    27073774.309
       364.000         311.000
 -10593431.592    -8239315.355    25291818.060    25291829.770
       576.000         372.000
 24  7 14  0 42 52.0000000  0  2R05R16
   -917029.551     -713262.761    27069193.982    27069209.980
       364.000         319.000
 -10621413.264    -8261078.619    25286579.958    25286591.044
       582.000         381.000
 24  7 14  0 42 53.0000000  0  2R05R16
   -941442.654     -732250.962    27064627.628    27064644.784
       374.000         327.000
 -10649400.783    -8282846.520    25281340.120    25281351.451
       582.000         381.000
 24  7 14  0 42 54.0000000  0  2R05R16
   -965867.198     -751248.112    27060058.511    27060074.450
       353.000         298.000
 -10677394.287    -8304619.058    25276099.846    25276111.390
       584.000         383.000
 24  7 14  0 42 55.0000000  0  2R05R16
   -990302.753     -770253.677    27055487.440    27055503.427
       372.000         323.000
 -10705393.684    -8326396.233    25270858.062    25270869.877
       581.000         373.000
 24  7 14  0 42 56.0000000  0  2R05R16
  -1014749.689     -789268.121    27050914.521    27050930.113
       371.000         321.000
 -10733399.020    -8348177.992    25265615.127    25265626.868
       587.000         379.000
 24  7 14  0 42 57.0000000  0  2R05R16
  -1039207.919     -808291.360    27046339.257    27046354.994
       370.000         318.000
 -10761410.236    -8369964.342    25260371.333    25260382.609
       584.000         375.000
 24  7 14  0 42 58.0000000  0  2R05R16
  -1063677.421     -827323.375    27041762.213    27041778.017
       369.000         321.000
 -10789427.293    -8391755.226    25255126.492    25255137.277
       577.000         374.000
 24  7 14  0 42 59.0000000  0  2R05R16
  -1088158.136     -846364.102    27037182.195    27037198.774
       369.000         323.000
 -10817450.149    -8413550.626    25249880.196    25249891.986
       575.000         374.000
 24  7 14  0 43  0.0000000  0  2R05R16
  -1112650.102     -865413.599    27032600.744    27032616.683
       356.000         309.000
 -10845478.776    -8435350.510    25244633.374    25244644.473
       583.000         383.000
 24  7 14  0 43  1.0000000  0  2R05R16
  -1137153.148     -884471.649    27028016.818    27028033.257
       371.000         333.000
 -10873513.093    -8457154.874    25239385.118    25239395.651
       576.000         380.000
 24  7 14  0 43  2.0000000  0  2R05R16
  -1161667.440     -903538.475    27023431.097    27023446.908
       366.000         321.000
 -10901553.285    -8478963.670    25234135.556    25234147.437
       570.000         374.000
 24  7 14  0 43  3.0000000  0  2R05R16
  -1186192.887     -922613.961    27018843.153    27018859.130
       367.000         321.000
 -10929599.101    -8500776.975    25228885.243    25228896.505
       581.000         380.000
 24  7 14  0 43  4.0000000  0  2R05R16
  -1210729.489     -941698.121    27014253.709    27014269.313
       369.000         323.000
 -10957650.678    -8522594.680    25223633.897    25223645.021
       578.000         380.000
 24  7 14  0 43  5.0000000  0  2R05R16
  -1235277.267     -960790.972    27009661.798    27009677.722
       370.000         322.000
 -10985707.924    -8544416.859    25218381.508    25218392.829
       581.000         376.000
 24  7 14  0 43  6.0000000  0  2R05R16
  -1259836.216     -979892.517    27005066.998    27005083.630
       369.000         322.000
 -11013770.793    -8566243.384    25213127.950    25213138.958
       586.000         376.000
 24  7 14  0 43  7.0000000  0  2R05R16
  -1284406.295     -999002.719    27000470.563    27000487.304
       370.000         320.000
 -11041839.295    -8588074.282    25207873.211    25207884.411
       580.000         374.000
 24  7 14  0 43  8.0000000  0  2R05R16
  -1308987.477    -1018121.553    26995872.770    26995888.608
       370.000         320.000
 -11069913.397    -8609909.544    25202617.830    25202628.210
       586.000         380.000
 24  7 14  0 43  9.0000000  0  2R05R16
  -1333579.770    -1037249.043    26991272.062    26991287.682
       367.000         319.000
 -11097993.069    -8631749.148    25197361.142    25197372.192
       576.000         372.000
 24  7 14  0 43 10.0000000  0  2R05R16
  -1358183.147    -1056385.154    26986670.220    26986685.734
       366.000         319.000
 -11126078.258    -8653593.035    25192103.395    25192114.173
       583.000         378.000
 24  7 14  0 43 11.0000000  0  2R05R16
  -1382797.603    -1075529.892    26982065.583    26982081.612
       367.000         319.000
 -11154168.904    -8675441.231    25186844.529    25186855.459
       583.000         381.000
 24  7 14  0 43 12.0000000  0  2R05R16
  -1407423.139    -1094683.252    26977458.813    26977475.549
       367.000         319.000
 -11182265.053    -8697293.641    25181584.732    25181595.710
       586.000         379.000
 24  7 14  0 43 13.0000000  0  2R05R16
  -1432059.744    -1113845.226    26972849.748    26972866.506
       370.000         321.000
 -11210366.707    -8719150.298    25176324.137    25176334.553
       569.000         370.000
 24  7 14  0 43 14.0000000  0  2R05R16
  -1456707.385    -1133015.793    26968239.060    26968255.373
       370.000         323.000
 -11238473.819    -8741011.238    25171061.917    25171072.812
       582.000         375.000
 24  7 14  0 43 15.0000000  0  2R05R16
  -1481366.044    -1152194.938    26963626.628    26963643.067
       372.000         322.000
 -11266586.295    -8762876.353    25165799.228    25165809.798
       580.000         373.000
 24  7 14  0 43 16.0000000  0  2R05R16
  -1506035.716    -1171382.657    26959011.558    26959028.274
       369.000         321.000
 -11294704.161    -8784745.642    25160535.403    25160546.355
       581.000         377.000
 24  7 14  0 43 17.0000000  0  2R05R16
  -1530716.390    -1190578.947    26954394.913    26954411.465
       370.000         318.000
 -11322827.356    -8806619.070    25155270.494    25155281.313
       593.000         379.000
 24  7 14  0 43 18.0000000  0  2R05R16
  -1555408.057    -1209783.794    26949775.843    26949792.625
       370.000         315.000
 -11350955.898    -8828496.672    25150004.808    25150015.153
       579.000         372.000
 24  7 14  0 43 19.0000000  0  2R05R16
  -1580110.702    -1228997.192    26945154.455    26945171.892
       369.000         320.000
 -11379089.747    -8850378.396    25144738.030    25144748.467
       582.000         372.000
 24  7 14  0 43 20.0000000  0  2R05R16
  -1604824.312    -1248219.130    26940531.989    26940549.291
       369.000         320.000
 -11407228.874    -8872264.220    25139469.958    25139480.792
       581.000         374.000
 24  7 14  0 43 21.0000000  0  2R05R16
  -1629548.873    -1267449.587    26935906.927    26935923.456
       371.000         324.000
 -11435373.240    -8894154.206    25134201.516    25134211.591
       572.000         371.000
 24  7 14  0 43 22.0000000  0  2R05R16
  -1654284.352    -1286688.544    26931279.666    26931296.492
       369.000         325.000
 -11463522.849    -8916048.126    25128931.572    25128941.856
       580.000         381.000
 24  7 14  0 43 23.0000000  0  2R05R16
  -1679030.713    -1305935.967    26926650.985    26926668.155
       371.000         325.000
 -11491677.695    -8937946.105    25123660.961    25123670.813
       581.000         380.000
 24  7 14  0 43 24.0000000  0  2R05R16
  -1703787.945    -1325191.850    26922019.461    26922036.161
       371.000         325.000
 -11519837.637    -8959848.180    25118388.960    25118399.287
       582.000         378.000
 24  7 14  0 43 25.0000000  0  2R05R16
  -1728556.032    -1344456.175    26917386.396    26917402.901
       371.000         323.000
 -11548002.769    -8981754.205    25113116.586    25113126.547
       586.000         381.000
 24  7 14  0 43 26.0000000  0  2R05R16
  -1753334.960    -1363728.931    26912750.348    26912768.588
       371.000         326.000
 -11576172.973    -9003664.217    25107842.890    25107852.978
       593.000         389.000
 24  7 14  0 43 27.0000000  0  2R05R16
  -1778124.737    -1383010.134    26908113.889    26908130.916
       370.000         327.000
 -11604348.367    -9025578.243    25102568.042    25102578.404
       580.000         379.000
 24  7 14  0 43 28.0000000  0  2R05R16
  -1802925.333    -1402299.756    26903474.532    26903491.662
       370.000         328.000
 -11632528.782    -9047496.169    25097292.869    25097302.657
       576.000         382.000
 24  7 14  0 43 29.0000000  0  2R05R16
  -1827736.743    -1421597.799    26898832.959    26898850.323
       368.000         331.000
 -11660714.241    -9069418.024    25092016.077    25092026.210
       582.000         386.000
 24  7 14  0 43 30.0000000  0  2R05R16
  -1852558.911    -1440904.203    26894189.625    26894207.350
       369.000         329.000
 -11688904.684    -9091343.733    25086738.730    25086748.787
       577.000         377.000
 24  7 14  0 43 31.0000000  0  2R05R16
  -1877391.790    -1460218.917    26889544.618    26889561.975
       371.000         326.000
 -11717100.049    -9113273.281    25081460.029    25081470.491
       586.000         383.000
 24  7 14  0 43 32.0000000  0  2R05R16
  -1902235.293    -1479541.830    26884896.591    26884914.498
       370.000         323.000
 -11745300.456    -9135206.697    25076181.072    25076191.106
       589.000         388.000
 24  7 14  0 43 33.0000000  0  2R05R16
  -1927089.506    -1498873.049    26880247.005    26880265.291
       374.000         330.000
 -11773505.837    -9157143.981    25070900.806    25070910.531
       592.000         386.000
 24  7 14  0 43 34.0000000  0  2R05R16
  -1951954.455    -1518212.629    26875596.552    26875614.029
       373.000         326.000
 -11801716.144    -9179085.204    25065619.369    25065629.279
       588.000         384.000
 24  7 14  0 43 35.0000000  0  2R05R16
  -1976830.183    -1537560.614    26870943.157    26870960.379
       372.000         330.000
 -11829931.423    -9201030.296    25060337.548    25060347.305
       583.000         382.000
 24  7 14  0 43 36.0000000  0  2R05R16
  -2001716.690    -1556917.019    26866287.295    26866305.346
       367.000         324.000
 -11858151.582    -9222979.164    25055054.433    25055064.042
       586.000         384.000
 24  7 14  0 43 37.0000000  0  2R05R16
  -2026613.805    -1576281.629    26861630.716    26861648.365
       377.000         330.000
 -11886376.586    -9244931.827    25049770.795    25049780.714
       581.000         378.000
 24  7 14  0 43 38.0000000  0  2R05R16
  -2051521.728    -1595654.737    26856971.166    26856989.330
       366.000         316.000
 -11914606.422    -9266888.249    25044485.712    25044495.791
       584.000         375.000
 24  7 14  0 43 39.0000000  0  2R05R16
  -2076440.129    -1615035.902    26852309.840    26852327.801
       378.000         323.000
 -11942841.064    -9288848.414    25039200.137    25039209.651
       584.000         376.000
 24  7 14  0 43 40.0000000  0  2R05R16
  -2101369.237    -1634425.458    26847646.567    26847664.076
       371.000         319.000
 -11971080.501    -9310812.316    25033913.390    25033923.019
       589.000         377.000
 24  7 14  0 43 41.0000000  0  2R05R16
  -2126308.700    -1653822.960    26842981.097    26842998.569
       368.000         309.000
 -11999324.620    -9332779.967    25028626.424    25028635.710
       582.000         368.000
 24  7 14  0 43 42.0000000  0  2R05R16
  -2151258.552    -1673228.399    26838314.097    26838331.085
       383.000         333.000
 -12027573.488    -9354751.099    25023338.101    25023347.766
       589.000         376.000
 24  7 14  0 43 43.0000000  0  2R05R16
  -2176219.354    -1692642.530    26833644.632    26833662.419
       373.000         323.000
 -12055827.036    -9376725.980    25018048.896    25018058.195
       584.000         371.000
 24  7 14  0 43 44.0000000  0  2R05R16
  -2201190.861    -1712065.064    26828973.043    26828990.832
       373.000         315.000
 -12084085.171    -9398704.466    25012758.682    25012768.537
       582.000         370.000
 24  7 14  0 43 45.0000000  0  2R05R16
  -2226172.876    -1731495.737    26824299.984    26824318.044
       371.000         316.000
 -12112347.985    -9420686.592    25007467.678    25007477.312
       583.000         372.000
 24  7 14  0 43 46.0000000  0  2R05R16
  -2251165.398    -1750934.555    26819624.270    26819642.847
       380.000         328.000
 -12140615.410    -9442672.268    25002175.827    25002185.464
       585.000         377.000
 24  7 14  0 43 47.0000000  0  2R05R16
  -2276168.589    -1770381.743    26814947.146    26814965.732
       376.000         324.000
 -12168887.410    -9464661.494    24996883.246    24996892.982
       591.000         381.000
 24  7 14  0 43 48.0000000  0  2R05R16
  -2301182.245    -1789837.052    26810268.453    26810286.289
       375.000         329.000
 -12197163.938    -9486654.260    24991589.913    24991599.341
       590.000         380.000
 24  7 14  0 43 49.0000000  0  2R05R16
  -2326206.370    -1809300.500    26805586.794    26805605.543
       377.000         333.000
 -12225444.960    -9508650.507    24986295.691    24986304.797
       588.000         388.000
 24  7 14  0 43 50.0000000  0  2R05R16
  -2351240.975    -1828772.118    26800903.845    26800922.473
       370.000         332.000
 -12253730.486    -9530650.271    24981000.596    24981009.786
       580.000         382.000
 24  7 14  0 43 51.0000000  0  2R05R16
  -2376286.086    -1848251.936    26796218.905    26796237.603
       372.000         323.000
 -12282020.547    -9552653.542    24975704.574    24975713.952
       577.000         374.000
 24  7 14  0 43 52.0000000  0  2R05R16
  -2401341.577    -1867739.803    26791531.977    26791550.588
       371.000         323.000
 -12310314.916    -9574660.160    24970407.464    24970417.078
       583.000         379.000
 24  7 14  0 43 53.0000000  0  2R05R16
  -2426407.468    -1887235.725    26786843.210    26786861.880
       380.000         334.000
 -12338613.794    -9596670.368    24965109.661    24965118.520
       585.000         380.000
 24  7 14  0 43 54.0000000  0  2R05R16
  -2451483.827    -1906739.816    26782152.483    26782171.050
       382.000         338.000
 -12366917.039    -9618683.876    24959811.245    24959820.383
       585.000         383.000
 24  7 14  0 43 55.0000000  0  2R05R16
  -2476570.620    -1926252.028    26777459.489    26777478.289
       376.000         327.000
 -12395224.652    -9640700.828    24954511.900    24954521.295
       590.000         385.000
 24  7 14  0 43 56.0000000  0  2R05R16
  -2501667.681    -1945772.165    26772764.440    26772783.651
       382.000         335.000
 -12423536.609    -9662721.153    24949211.933    24949221.195
       586.000         376.000
 24  7 14  0 43 57.0000000  0  2R05R16
  -2526775.241    -1965300.536    26768068.091    26768086.815
       378.000         326.000
 -12451852.876    -9684744.860    24943910.824    24943919.961
       585.000         370.000
 24  7 14  0 43 58.0000000  0  2R05R16
  -2551892.979    -1984836.743    26763369.669    26763388.133
       371.000         320.000
 -12480173.463    -9706771.911    24938609.250    24938618.377
       583.000         373.000
 24  7 14  0 43 59.0000000  0  2R05R16
  -2577021.059    -2004380.994    26758668.815    26758688.037
       381.000         337.000
 -12508498.310    -9728802.289    24933306.662    24933315.789
       584.000         382.000
 24  7 14  0 44  0.0000000  0  2R05R16
  -2602159.461    -2023933.283    26753966.810    26753985.966
       368.000         322.000
 -12536827.393    -9750835.959    24928003.339    24928012.830
       585.000         385.000
 24  7 14  0 44  1.0000000  0  2R05R16
  -2627307.895    -2043493.242    26749261.881    26749281.439
       385.000         344.000
 -12565160.562    -9772872.915    24922699.033    24922708.374
       586.000         385.000
 24  7 14  0 44  2.0000000  0  2R05R16
  -2652466.792    -2063061.414    26744555.536    26744574.844
       383.000         339.000
 -12593498.052    -9794912.974    24917394.590    24917403.564
       590.000         383.000
 24  7 14  0 44  3.0000000  0  2R05R16
  -2677636.096    -2082637.750    26739847.436    26739866.315
       380.000         332.000
 -12621839.559    -9816956.332    24912089.144    24912097.982
       588.000         385.000
 24  7 14  0 44  4.0000000  0  2R05R16
  -2702815.473    -2102221.829    26735137.125    26735156.222
       381.000         342.000
 -12650185.176    -9839002.807    24906782.443    24906791.389
       590.000         391.000
 24  7 14  0 44  5.0000000  0  2R05R16
  -2728005.152    -2121813.923    26730424.845    26730443.348
       375.000         330.000
 -12678534.904    -9861052.545    24901475.241    24901483.962
       586.000         390.000
 24  7 14  0 44  6.0000000  0  2R05R16
  -2753205.159    -2141414.123    26725710.649    26725729.619
       388.000         349.000
 -12706888.695    -9883105.418    24896167.349    24896176.423
       589.000         391.000
 24  7 14  0 44  7.0000000  0  2R05R16
  -2778415.430    -2161022.319    26720994.698    26721014.057
       390.000         347.000
 -12735246.549    -9905161.426    24890858.544    24890867.256
       592.000         394.000
 24  7 14  0 44  8.0000000  0  2R05R16
  -2803635.886    -2180638.438    26716277.034    26716295.789
       381.000         336.000
 -12763608.363    -9927220.534    24885549.089    24885558.403
       596.000         391.000
 24  7 14  0 44  9.0000000  0  2R05R16
  -2828866.678    -2200262.697    26711557.214    26711576.279
       377.000         327.000
 -12791974.139    -9949282.714    24880238.890    24880247.685
       596.000         393.000
 24  7 14  0 44 10.0000000  0  2R05R16
  -2854107.344    -2219894.490    26706835.586    26706854.685
       384.000         334.000
 -12820343.889    -9971347.992    24874927.745    24874937.229
       592.000         390.000
 24  7 14  0 44 11.0000000  0  2R05R16
  -2879358.177    -2239534.207    26702112.714    26702131.582
       379.000         338.000
 -12848717.569    -9993416.274    24869615.999    24869625.274
       594.000         391.000
 24  7 14  0 44 12.0000000  0  2R05R16
  -2904618.929    -2259181.532    26697386.606    26697405.404
       388.000         349.000
 -12877095.193   -10015487.692    24864304.162    24864312.870
       597.000         391.000
 24  7 14  0 44 13.0000000  0  2R05R16
  -2929889.810    -2278836.733    26692659.087    26692678.238
       383.000         348.000
 -12905476.599   -10037562.050    24858990.509    24858999.754
       597.000         391.000
 24  7 14  0 44 14.0000000  0  2R05R16
  -2955170.714    -2298499.681    26687929.840    26687949.185
       387.000         350.000
 -12933861.880   -10059639.457    24853676.909    24853685.609
       599.000         394.000
 24  7 14  0 44 15.0000000  0  2R05R16
  -2980462.101    -2318170.990    26683198.524    26683219.095
       376.000         327.000
 -12962251.037   -10081719.803    24848362.243    24848371.252
       598.000         389.000
 24  7 14  0 44 16.0000000  0  2R05R16
  -3005763.209    -2337849.695    26678465.846    26678485.758
       382.000         334.000
 -12990643.951   -10103803.144    24843046.950    24843056.243
       595.000         390.000
 24  7 14  0 44 17.0000000  0  2R05R16
  -3031074.235    -2357536.048    26673730.666    26673749.853
       376.000         331.000
 -13019040.624   -10125889.396    24837730.693    24837740.114
       600.000         398.000
 24  7 14  0 44 18.0000000  0  2R05R16
  -3056395.284    -2377230.187    26668993.894    26669013.600
       379.000         336.000
 -13047441.068   -10147978.580    24832414.655    24832422.810
       598.000         390.000
 24  7 14  0 44 19.0000000  0  2R05R16
  -3081726.276    -2396932.028    26664254.878    26664274.696
       387.000         341.000
 -13075845.184   -10170070.615    24827097.232    24827106.226
       606.000         400.000
 24  7 14  0 44 20.0000000  0  2R05R16
  -3107067.169    -2416641.506    26659514.617    26659533.938
       391.000         347.000
 -13104252.986   -10192165.521    24821778.736    24821787.937
       603.000         398.000
 24  7 14  0 44 21.0000000  0  2R05R16
  -3132418.131    -2436358.868    26654771.805    26654791.061
       391.000         348.000
 -13132664.416   -10214263.213    24816460.112    24816469.251
       604.000         397.000
 24  7 14  0 44 22.0000000  0  2R05R16
  -3157779.118    -2456084.057    26650027.662    26650047.302
       387.000         338.000
 -13161079.508   -10236363.823    24811140.837    24811149.696
       604.000         393.000
 24  7 14  0 44 23.0000000  0  2R05R16
  -3183149.866    -2475816.738    26645281.646    26645300.897
       384.000         336.000
 -13189498.142   -10258467.180    24805820.366    24805829.827
       599.000         393.000
 24  7 14  0 44 24.0000000  0  2R05R16
  -3208530.638    -2495557.274    26640533.147    26640552.536
       389.000         345.000
 -13217920.458   -10280573.321    24800499.857    24800509.103
       597.000         393.000
 24  7 14  0 44 25.0000000  0  2R05R16
  -3233921.447    -2515305.680    26635782.853    26635802.886
       388.000         339.000
 -13246346.223   -10302682.245    24795178.817    24795187.602
       600.000         389.000
 24  7 14  0 44 26.0000000  0  2R05R16
  -3259322.215    -2535061.865    26631031.530    26631051.462
       391.000         343.000
 -13274775.529   -10324793.862    24789856.645    24789865.246
       602.000         391.000
 24  7 14  0 44 27.0000000  0  2R05R16
  -3284733.122    -2554826.058    26626277.747    26626298.120
       387.000         341.000
 -13303208.343   -10346908.218    24784533.670    24784542.789
       598.000         389.000
 24  7 14  0 44 28.0000000  0  2R05R16
  -3310153.737    -2574597.714    26621522.983    26621542.782
       382.000         331.000
 -13331644.618   -10369025.262    24779210.700    24779219.480
       600.000         393.000
 24  7 14  0 44 29.0000000  0  2R05R16
  -3335583.992    -2594376.756    26616765.809    26616785.103
       393.000         350.000
 -13360084.321   -10391144.985    24773886.573    24773895.447
       602.000         392.000
 24  7 14  0 44 30.0000000  0  2R05R16
  -3361024.090    -2614163.437    26612006.404    26612026.480
       391.000         340.000
 -13388527.385   -10413267.315    24768561.825    24768570.667
       607.000         396.000
 24  7 14  0 44 31.0000000  0  2R05R16
  -3386473.866    -2633957.585    26607245.528    26607265.291
       388.000         344.000
 -13416973.863   -10435392.313    24763236.589    24763245.532
       605.000         396.000
 24  7 14  0 44 32.0000000  0  2R05R16
  -3411933.497    -2653759.424    26602482.849    26602502.376
       384.000         334.000
 -13445423.613   -10457519.883    24757910.468    24757919.325
       603.000         397.000
 24  7 14  0 44 33.0000000  0  2R05R16
  -3437403.194    -2673569.246    26597718.320    26597737.633
       390.000         339.000
 -13473876.725   -10479650.050    24752584.047    24752593.252
       604.000         398.000
 24  7 14  0 44 34.0000000  0  2R05R16
  -3462882.859    -2693386.921    26592951.839    26592970.833
       394.000         350.000
 -13502333.150   -10501782.780    24747256.842    24747265.807
       603.000         397.000
 24  7 14  0 44 35.0000000  0  2R05R16
  -3488372.072    -2713211.926    26588183.713    26588202.828
       390.000         341.000
 -13530792.890   -10523918.072    24741929.513    24741937.985
       603.000         394.000
 24  7 14  0 44 36.0000000  0  2R05R16
  -3513870.946    -2733044.406    26583413.698    26583433.011
       381.000         328.000
 -13559255.827   -10546055.872    24736600.849    24736609.452
       601.000         395.000
 24  7 14  0 44 37.0000000  0  2R05R16
  -3539378.834    -2752883.540    26578641.360    26578660.373
       396.000         355.000
 -13587721.962   -10568196.162    24731272.310    24731280.637
       602.000         395.000
 24  7 14  0 44 38.0000000  0  2R05R16
  -3564897.091    -2772731.082    26573867.929    26573886.909
       390.000         344.000
 -13616191.248   -10590338.914    24725942.534    24725951.436
       600.000         395.000
 24  7 14  0 44 39.0000000  0  2R05R16
  -3590425.099    -2792586.230    26569091.804    26569111.247
       390.000         346.000
 -13644663.644   -10612484.076    24720612.450    24720620.751
       600.000         398.000
 24  7 14  0 44 40.0000000  0  2R05R16
  -3615962.591    -2812448.660    26564314.873    26564334.082
       383.000         339.000
 -13673139.156   -10634631.660    24715281.441    24715289.983
       600.000         397.000
 24  7 14  0 44 41.0000000  0  2R05R16
  -3641509.140    -2832317.829    26559535.204    26559554.296
       398.000         355.000
 -13701617.856   -10656781.692    24709950.266    24709958.793
       601.000         398.000
 24  7 14  0 44 42.0000000  0  2R05R16
  -3667065.782    -2852195.080    26554754.290    26554774.049
       386.000         340.000
 -13730099.494   -10678934.043    24704618.186    24704626.753
       601.000         394.000
 24  7 14  0 44 43.0000000  0  2R05R16
  -3692631.914    -2872079.645    26549972.247    26549990.648
       394.000         350.000
 -13758584.282   -10701088.869    24699285.792    24699294.690
       598.000         395.000
 24  7 14  0 44 44.0000000  0  2R05R16
  -3718207.527    -2891971.515    26545186.922    26545206.354
       390.000         346.000
 -13787072.081   -10723245.991    24693953.014    24693961.705
       600.000         398.000
 24  7 14  0 44 45.0000000  0  2R05R16
  -3743792.488    -2911870.531    26540400.386    26540420.043
       379.000         329.000
 -13815562.844   -10745405.443    24688619.643    24688628.308
       603.000         397.000
 24  7 14  0 44 46.0000000  0  2R05R16
  -3769387.277    -2931777.322    26535612.110    26535631.389
       381.000         330.000
 -13844056.501   -10767567.154    24683285.956    24683294.023
       603.000         398.000
 24  7 14  0 44 47.0000000  0  2R05R16
  -3794991.073    -2951690.854    26530822.341    26530840.796
       394.000         346.000
 -13872553.052   -10789731.079    24677951.010    24677959.446
       602.000         399.000
 24  7 14  0 44 48.0000000  0  2R05R16
  -3820604.196    -2971611.515    26526030.830    26526048.954
       389.000         342.000
 -13901052.468   -10811897.230    24672615.687    24672624.048
       597.000         396.000
 24  7 14  0 44 49.0000000  0  2R05R16
  -3846227.233    -2991540.102    26521236.426    26521255.485
       395.000         353.000
 -13929554.746   -10834065.611    24667279.862    24667288.567
       599.000         393.000
 24  7 14  0 44 50.0000000  0  2R05R16
  -3871860.365    -3011476.820    26516441.233    26516459.579
       385.000         337.000
 -13958059.861   -10856236.185    24661943.360    24661951.944
       594.000         393.000
 24  7 14  0 44 51.0000000  0  2R05R16
  -3897502.742    -3031420.594    26511644.361    26511662.737
       397.000         358.000
 -13986567.708   -10878408.873    24656606.549    24656615.506
       602.000         397.000
 24  7 14  0 44 52.0000000  0  2R05R16
  -3923154.525    -3051371.657    26506845.102    26506864.320
       389.000         344.000
 -14015078.500   -10900583.830    24651269.056    24651277.978
       600.000         396.000
 24  7 14  0 44 53.0000000  0  2R05R16
  -3948815.952    -3071330.322    26502044.933    26502062.963
       391.000         348.000
 -14043591.872   -10922760.876    24645931.261    24645940.296
       595.000         394.000
 24  7 14  0 44 54.0000000  0  2R05R16
  -3974487.151    -3091296.777    26497242.312    26497260.543
       386.000         343.000
 -14072108.055   -10944940.009    24640593.065    24640602.028
       600.000         398.000
 24  7 14  0 44 55.0000000  0  2R05R16
  -4000167.365    -3111270.045    26492437.925    26492456.354
       390.000         350.000
 -14100626.910   -10967121.267    24635254.467    24635262.453
       601.000         398.000
 24  7 14  0 44 56.0000000  0  2R05R16
  -4025856.858    -3131250.466    26487631.777    26487650.210
       389.000         343.000
 -14129148.460   -10989304.630    24629915.093    24629923.673
       605.000         398.000
 24  7 14  0 44 57.0000000  0  2R05R16
  -4051555.642    -3151238.060    26482824.360    26482842.849
       393.000         351.000
 -14157672.648   -11011490.055    24624575.365    24624583.967
       595.000         396.000
 24  7 14  0 44 58.0000000  0  2R05R16
  -4077264.058    -3171233.273    26478014.708    26478032.827
       391.000         353.000
 -14186199.431   -11033677.481    24619235.234    24619243.312
       592.000         393.000
 24  7 14  0 44 59.0000000  0  2R05R16
  -4102981.992    -3191235.978    26473203.520    26473221.618
       384.000         342.000
 -14214728.769   -11055866.893    24613893.979    24613902.600
       598.000         401.000
 24  7 14  0 45  0.0000000  0  2R05R16
  -4128708.899    -3211245.468    26468390.606    26468408.451
       391.000         350.000
 -14243260.659   -11078058.294    24608552.942    24608561.083
       599.000         398.000
 24  7 14  0 45  1.0000000  0  2R05R16
  -4154445.145    -3231262.231    26463576.011    26463593.837
       395.000         358.000
 -14271795.001   -11100251.705    24603210.901    24603219.536
       597.000         398.000
 24  7 14  0 45  2.0000000  0  2R05R16
  -4180190.700    -3251286.247    26458759.114    26458777.869
       391.000         352.000
 -14300332.013   -11122447.047    24597868.709    24597876.990
       598.000         398.000
 24  7 14  0 45  3.0000000  0  2R05R16
  -4205945.859    -3271317.885    26453941.235    26453958.865
       388.000         349.000
 -14328871.456   -11144644.268    24592526.076    24592534.358
       594.000         397.000
 24  7 14  0 45  4.0000000  0  2R05R16
  -4231710.134    -3291356.538    26449121.485    26449139.204
       393.000         356.000
 -14357413.284   -11166843.402    24587183.029    24587191.332
       593.000         396.000
 24  7 14  0 45  5.0000000  0  2R05R16
  -4257483.689    -3311402.420    26444299.438    26444317.508
       391.000         347.000
 -14385957.497   -11189044.378    24581839.460    24581848.261
       596.000         394.000
 24  7 14  0 45  6.0000000  0  2R05R16
  -4283266.494    -3331455.533    26439476.434    26439493.960
       394.000         354.000
 -14414504.095   -11211247.177    24576495.468    24576503.700
       597.000         395.000
 24  7 14  0 45  7.0000000  0  2R05R16
  -4309058.544    -3351515.814    26434651.285    26434669.104
       396.000         358.000
 -14443052.973   -11233451.782    24571150.811    24571159.195
       598.000         400.000
 24  7 14  0 45  8.0000000  0  2R05R16
  -4334859.803    -3371583.276    26429824.287    26429842.186
       390.000         348.000
 -14471604.167   -11255658.182    24565805.935    24565814.405
       596.000         395.000
 24  7 14  0 45  9.0000000  0  2R05R16
  -4360670.251    -3391657.897    26424996.165    26425013.520
       390.000         354.000
 -14500157.655   -11277866.365    24560460.245    24560469.311
       592.000         395.000
 24  7 14  0 45 10.0000000  0  2R05R16
  -4386489.840    -3411739.629    26420165.972    26420183.336
       392.000         352.000
 -14528713.405   -11300076.300    24555114.633    24555122.954
       598.000         397.000
 24  7 14  0 45 11.0000000  0  3R05R15R16
  -4412318.432    -3431828.285    26415334.119    26415351.193
       391.000         348.000
   -207537.089     -161417.292    27181343.417    27181354.681
       603.000         362.000
 -14557271.441   -11322287.914    24549769.052    24549777.189
       599.000         397.000
 24  7 14  0 45 12.0000000  0  3R05R15R16
  -4438156.058    -3451923.930    26410500.526    26410517.609
       396.000         355.000
   -242702.286     -188767.799    27174762.727    27174773.589
       603.000         359.000
 -14585831.618   -11344501.345    24544421.991    24544430.316
       597.000         395.000
 24  7 14  0 45 13.0000000  0  3R05R15R16
  -4464002.800    -3472026.652    26405664.993    26405682.095
       394.000         362.000
   -277880.542     -216128.548    27168179.305    27168190.215
       600.000         360.000
 -14614393.909   -11366716.374    24539074.943    24539083.263
       602.000         404.000
 24  7 14  0 45 14.0000000  0  3R05R15R16
  -4489858.554    -3492136.337    26400827.520    26400845.394
       388.000         349.000
   -313071.637     -243499.259    27161593.946    27161604.996
       602.000         362.000
 -14642958.405   -11388933.146    24533727.904    24533735.923
       604.000         405.000
 24  7 14  0 45 15.0000000  0  3R05R15R16
  -4515723.186    -3512252.835    26395988.384    26396005.912
       393.000         357.000
   -348275.883     -270880.359    27155005.978    27155017.421
       606.000         362.000
 -14671525.015   -11411151.517    24528379.711    24528387.831
       606.000         403.000
 24  7 14  0 45 16.0000000  0  3R05R15R16
  -4541596.962    -3532376.473    26391148.170    26391165.403
       397.000         362.000
   -383493.290     -298271.862    27148415.607    27148427.028
       608.000         360.000
 -14700093.714   -11433371.540    24523031.660    24523039.799
       607.000         402.000
 24  7 14  0 45 17.0000000  0  3R05R15R16
  -4567479.975    -3552507.398    26386306.475    26386323.063
       395.000         353.000
   -418723.587     -325673.452    27141822.867    27141834.165
       606.000         358.000
 -14728664.514   -11455593.179    24517683.021    24517691.292
       601.000         400.000
 24  7 14  0 45 18.0000000  0  3R05R15R16
  -4593371.901    -3572645.197    26381461.622    26381478.788
       392.000         349.000
   -453966.609     -353084.910    27135227.973    27135238.946
       609.000         361.000
 -14757237.340   -11477816.417    24512334.303    24512341.940
       603.000         399.000
 24  7 14  0 45 19.0000000  0  3R05R15R16
  -4619272.648    -3592789.747    26376616.932    26376632.749
       404.000         370.000
   -489222.459     -380506.382    27128630.319    27128641.511
       608.000         362.000
 -14785812.185   -11500041.216    24506984.650    24506992.746
       602.000         399.000
 24  7 14  0 45 20.0000000  0  3R05R15R16
  -4645182.671    -3612941.686    26371769.297    26371786.061
       394.000         356.000
   -524490.844     -407937.528    27122030.455    27122041.714
       611.000         363.000
 -14814389.009   -11522267.561    24501635.383    24501643.176
       601.000         399.000
 24  7 14  0 45 21.0000000  0  3R05R15R16
  -4671101.657    -3633100.594    26366920.484    26366936.497
       393.000         352.000
   -559772.047     -435378.720    27115428.196    27115439.676
       612.000         365.000
 -14842967.720   -11544495.491    24496285.223    24496293.054
       602.000         399.000
 24  7 14  0 45 22.0000000  0  3R05R15R16
  -4697029.492    -3653266.331    26362070.104    26362086.462
       391.000         350.000
   -595065.857     -462829.698    27108823.956    27108834.934
       610.000         363.000
 -14871548.495   -11566724.826    24490934.611    24490943.022
       598.000         399.000
 24  7 14  0 45 23.0000000  0  3R05R15R16
  -4722966.152    -3673438.868    26357217.973    26357234.181
       393.000         358.000
   -630372.268     -490290.455    27102216.645    27102228.195
       610.000         362.000
 -14900131.013   -11588955.590    24485584.147    24485592.219
       604.000         400.000
 24  7 14  0 45 24.0000000  0  3R05R15R16
  -4748911.818    -3693618.442    26352363.724    26352379.914
       400.000         362.000
   -665691.277     -517761.009    27095607.131    27095618.676
       617.000         368.000
 -14928715.414   -11611187.819    24480233.029    24480241.679
       602.000         398.000
 24  7 14  0 45 25.0000000  0  3R05R15R16
  -4774866.478    -3713805.056    26347507.762    26347523.979
       394.000         356.000
   -701023.134     -545241.693    27088995.847    27089007.447
       613.000         362.000
 -14957301.605   -11633421.442    24474881.333    24474889.265
       601.000         403.000
 24  7 14  0 45 26.0000000  0  3R05R15R16
  -4800829.939    -3733998.477    26342649.888    26342666.802
       397.000         361.000
   -736367.486     -572732.082    27082381.709    27082392.984
       613.000         365.000
 -14985889.562   -11655656.439    24469529.683    24469536.993
       600.000         398.000
 24  7 14  0 45 27.0000000  0  3R05R15R16
  -4826802.067    -3754198.544    26337791.875    26337807.555
       395.000         356.000
   -771724.296     -600232.155    27075765.334    27075777.070
       621.000         372.000
 -15014479.285   -11677892.830    24464177.649    24464185.463
       601.000         397.000
 24  7 14  0 45 28.0000000  0  3R05R15R16
  -4852783.151    -3774405.633    26332931.419    26332947.372
       398.000         363.000
   -807093.989     -627742.477    27069147.188    27069158.791
       621.000         366.000
 -15043070.756   -11700130.581    24458825.097    24458833.077
       604.000         403.000
 24  7 14  0 45 29.0000000  0  3R05R15R16
  -4878773.021    -3794619.540    26328069.516    26328084.562
       396.000         359.000
   -842475.954     -655262.246    27062525.994    27062538.074
       590.000         345.000
 -15071663.948   -11722369.672    24453472.054    24453480.027
       606.000         404.000
 24  7 14  0 45 30.0000000  0  3R05R15R16
  -4904771.591    -3814840.139    26323205.311    26323220.487
       399.000         358.000
   -877870.328     -682791.633    27055902.545    27055914.754
       622.000         369.000
 -15100258.841   -11744610.088    24448118.992    24448127.077
       602.000         399.000
 24  7 14  0 45 31.0000000  0  3R05R15R16
  -4930779.145    -3835067.830    26318339.553    26318354.816
       393.000         351.000
   -913277.057     -710330.624    27049277.024    27049288.933
       620.000         367.000
 -15128855.351   -11766851.835    24442765.334    24442773.941
       601.000         401.000
 24  7 14  0 45 32.0000000  0  3R05R15R16
  -4956795.231    -3855302.034    26313472.116    26313487.566
       400.000         364.000
   -948696.232     -737879.324    27042649.187    27042661.454
       618.000         368.000
 -15157453.489   -11789094.693    24437412.000    24437419.991
       601.000         402.000
 24  7 14  0 45 33.0000000  0  3R05R15R16
  -4982820.371    -3875543.441    26308603.366    26308618.927
       395.000         357.000
   -984127.519     -765437.339    27036018.959    27036031.292
       617.000         364.000
 -15186053.204   -11811338.847    24432057.954    24432065.933
       603.000         403.000
 24  7 14  0 45 34.0000000  0  3R05R15R16
  -5008854.027    -3895791.351    26303732.977    26303748.556
       399.000         363.000
  -1019571.046     -793004.854    27029386.276    27029399.611
       623.000         368.000
 -15214654.449   -11833584.224    24426704.025    24426711.755
       598.000         397.000
 24  7 14  0 45 35.0000000  0  3R05R15R16
  -5034896.455    -3916046.122    26298860.399    26298876.547
       400.000         364.000
  -1055026.799     -820581.856    27022751.635    27022764.393
       619.000         366.000
 -15243257.224   -11855830.752    24421349.401    24421357.278
       600.000         397.000
 24  7 14  0 45 36.0000000  0  3R05R15R16
  -5060947.816    -3936307.939    26293986.765    26294002.211
       394.000         357.000
  -1090494.807     -848168.402    27016115.097    27016127.528
       620.000         367.000
 -15271861.460   -11878078.431    24415994.630    24416002.475
       603.000         401.000
 24  7 14  0 45 37.0000000  0  3R05R15R16
  -5087007.927    -3956576.586    26289112.010    26289126.567
       397.000         361.000
  -1125975.031     -875764.453    27009475.355    27009487.851
       624.000         371.000
 -15300467.132   -11900327.197    24410639.433    24410647.158
       605.000         405.000
 24  7 14  0 45 38.0000000  0  3R05R15R16
  -5113076.760    -3976852.030    26284234.779    26284249.826
       401.000         365.000
  -1161467.504     -903370.072    27002833.521    27002846.206
       627.000         372.000
 -15329074.235   -11922577.077    24405284.301    24405291.771
       604.000         404.000
 24  7 14  0 45 39.0000000  0  3R05R15R16
  -5139154.437    -3997134.454    26279356.172    26279371.414
       400.000         362.000
  -1196972.042     -930985.030    26996189.761    26996202.843
       623.000         370.000
 -15357682.704   -11944827.994    24399928.372    24399935.866
       608.000         404.000
 24  7 14  0 45 40.0000000  0  3R05R15R16
  -5165240.642    -4017423.454    26274476.119    26274491.212
       398.000         360.000
  -1232488.641     -958609.343    26989543.415    26989556.406
       620.000         363.000
 -15386292.560   -11967080.001    24394572.644    24394580.025
       604.000         404.000
 24  7 14  0 45 41.0000000  0  3R05R15R16
  -5191335.316    -4037718.979    26269594.277    26269609.237
       396.000         361.000
  -1268017.328     -986243.060    26982894.782    26982907.907
       630.000         375.000
 -15414903.752   -11989333.080    24389216.589    24389223.945
       602.000         405.000
 24  7 14  0 45 42.0000000  0  3R05R15R16
  -5217438.589    -4058021.171    26264710.926    26264725.536
       399.000         365.000
  -1303558.071    -1013886.163    26976244.264    26976257.071
       627.000         371.000
 -15443516.349   -12011587.209    24383859.962    24383867.867
       597.000         398.000
 24  7 14  0 45 43.0000000  0  3R05R15R16
  -5243550.467    -4078330.085    26259825.696    26259840.221
       398.000         364.000
  -1339110.902    -1041538.701    26969591.150    26969604.685
       627.000         375.000
 -15472130.164   -12033842.347    24378503.068    24378511.680
       599.000         400.000
 24  7 14  0 45 44.0000000  0  3R05R15R16
  -5269670.846    -4098645.578    26254939.343    26254954.136
       395.000         364.000
  -1374675.892    -1069200.772    26962935.720    26962949.229
       624.000         370.000
 -15500745.291   -12056098.457    24373146.117    24373154.158
       604.000         407.000
 24  7 14  0 45 45.0000000  0  3R05R15R16
  -5295799.796    -4118967.766    26250051.183    26250065.108
       394.000         361.000
  -1410252.884    -1096872.185    26956278.063    26956292.191
       621.000         372.000
 -15529361.635   -12078355.540    24367789.587    24367797.019
       603.000         402.000
 24  7 14  0 45 46.0000000  0  3R05R15R16
  -5321937.056    -4139296.324    26245161.296    26245175.592
       397.000         363.000
  -1445841.726    -1124552.779    26949618.521    26949632.045
       625.000         371.000
 -15557979.129   -12100613.486    24362432.060    24362439.578
       604.000         404.000
 24  7 14  0 45 47.0000000  0  3R05R15R16
  -5348082.767    -4159631.424    26240269.890    26240284.397
       396.000         360.000
  -1481442.507    -1152242.697    26942956.883    26942970.475
       627.000         378.000
 -15586597.805   -12122872.377    24357074.614    24357082.281
       606.000         406.000
 24  7 14  0 45 48.0000000  0  3R05R15R16
  -5374236.973    -4179973.126    26235376.512    26235390.693
       398.000         364.000
  -1517055.110    -1179941.779    26936292.871    26936306.300
       633.000         376.000
 -15615217.641   -12145132.172    24351716.855    24351724.448
       603.000         403.000
 24  7 14  0 45 49.0000000  0  3R05R15R16
  -5400399.741    -4200321.520    26230482.332    26230495.606
       395.000         363.000
  -1552679.677    -1207650.237    26929626.439    26929640.430
       629.000         376.000
 -15643838.608   -12167392.862    24346358.971    24346366.205
       603.000         407.000
 24  7 14  0 45 50.0000000  0  3R05R15R16
  -5426571.270    -4220676.870    26225586.613    26225599.565
       394.000         367.000
  -1588316.057    -1235367.879    26922958.126    26922971.819
       626.000         373.000
 -15672460.700   -12189654.449    24341000.639    24341008.217
       599.000         409.000
 24  7 14  0 45 51.0000000  0  3R05R15R16
  -5452751.331    -4241038.891    26220688.754    26220701.932
       395.000         369.000
  -1623964.195    -1263094.640    26916287.057    26916301.401
       613.000         362.000
 -15701083.764   -12211916.879    24335642.082    24335649.708
       596.000         401.000
 24  7 14  0 45 52.0000000  0  3R05R15R16
  -5478939.834    -4261407.485    26215789.222    26215803.224
       393.000         368.000
  -1659623.661    -1290829.987    26909614.080    26909628.154
       624.000         375.000
 -15729708.037   -12234180.045    24330283.539    24330291.514
       595.000         404.000
 24  7 14  0 45 53.0000000  0  3R05R15R16
  -5505136.781    -4281782.669    26210888.256    26210901.584
       384.000         364.000
  -1695294.842    -1318574.454    26902938.957    26902953.036
       620.000         381.000
 -15758333.113   -12256444.038    24324925.253    24324932.731
       587.000         406.000
 24  7 14  0 45 54.0000000  0  3R05R15R16
  -5531341.805    -4302163.989    26205985.827    26205999.170
       394.000         370.000
  -1730977.808    -1346328.149    26896261.658    26896275.562
       623.000         374.000
 -15786959.178   -12278708.711    24319566.313    24319573.806
       593.000         402.000
 24  7 14  0 45 55.0000000  0  3R05R15R16
  -5557555.308    -4322551.977    26201081.829    26201095.101
       390.000         371.000
  -1766672.323    -1374090.772    26889582.203    26889595.943
       622.000         379.000
 -15815586.185   -12300974.137    24314207.170    24314214.646
       589.000         403.000
 24  7 14  0 45 56.0000000  0  3R05R15R16
  -5583777.250    -4342946.572    26196176.433    26196189.412
       390.000         370.000
  -1802378.552    -1401862.545    26882900.307    26882914.305
       626.000         375.000
 -15844214.064   -12323240.262    24308847.984    24308855.243
       597.000         409.000
 24  7 14  0 45 57.0000000  0  3R05R15R16
  -5610007.429    -4363347.536    26191269.504    26191282.260
       392.000         370.000
  -1838096.229    -1429643.162    26876216.440    26876230.665
       634.000         381.000
 -15872842.815   -12345507.050    24303488.612    24303496.193
       596.000         410.000
 24  7 14  0 45 58.0000000  0  3R05R15R16
  -5636245.869    -4383754.914    26186360.492    26186373.558
       391.000         370.000
  -1873825.685    -1457433.039    26869530.345    26869544.865
       618.000         372.000
 -15901472.334   -12367774.424    24298129.240    24298136.863
       599.000         408.000
 24  7 14  0 45 59.0000000  0  3R05R15R16
  -5662492.731    -4404168.901    26181450.393    26181463.098
       393.000         373.000
  -1909566.596    -1485231.783    26862842.155    26862856.354
       632.000         384.000
 -15930102.643   -12390042.399    24292769.508    24292777.243
       591.000         405.000
 24  7 14  0 46  0.0000000  0  3R05R15R16
  -5688747.875    -4424589.330    26176538.534    26176552.087
       391.000         361.000
  -1945319.073    -1513039.556    26856151.674    26856166.372
       627.000         378.000
 -15958733.722   -12412310.972    24287409.619    24287416.752
       602.000         410.000
 24  7 14  0 46  1.0000000  0  3R05R15R16
  -5715011.149    -4445016.014    26171625.128    26171637.940
       393.000         371.000
  -1981083.069    -1540856.290    26849459.086    26849473.687
       636.000         385.000
 -15987365.479   -12434580.167    24282049.502    24282056.985
       598.000         409.000
 24  7 14  0 46  2.0000000  0  3R05R15R16
  -5741282.659    -4465449.094    26166710.165    26166723.357
       398.000         372.000
  -2016858.626    -1568682.093    26842764.515    26842779.478
       624.000         371.000
 -16015998.097   -12456849.831    24276689.410    24276696.998
       607.000         411.000
 24  7 14  0 46  3.0000000  0  3R05R15R16
  -5767562.412    -4485888.598    26161794.332    26161807.111
       396.000         369.000
  -2052645.149    -1596516.192    26836067.650    26836082.133
       653.000         393.000
 -16044631.314   -12479120.019    24271329.458    24271336.588
       601.000         406.000
 24  7 14  0 46  4.0000000  0  3R05R15R16
  -5793850.145    -4506334.201    26156876.241    26156888.482
       395.000         370.000
  -2088443.317    -1624359.487    26829368.712    26829383.465
       640.000         388.000
 -16073265.130   -12501390.728    24265969.229    24265976.461
       601.000         407.000
 24  7 14  0 46  5.0000000  0  3R05R15R16
  -5820146.152    -4526786.305    26151956.756    26151969.473
       397.000         376.000
  -2124252.838    -1652211.620    26822667.885    26822682.610
       622.000         367.000
 -16101899.545   -12523661.925    24260608.692    24260615.935
       603.000         410.000
 24  7 14  0 46  6.0000000  0  3R05R15R16
  -5846450.457    -4547244.929    26147036.085    26147048.590
       395.000         369.000
  -2160073.525    -1680072.359    26815964.946    26815979.327
       643.000         387.000
 -16130534.559   -12545933.553    24255248.061    24255255.355
       602.000         405.000
 24  7 14  0 46  7.0000000  0  3R05R15R16
  -5872762.819    -4567709.765    26142112.928    26142125.545
       401.000         375.000
  -2195905.672    -1707942.123    26809259.061    26809274.373
       637.000         380.000
 -16159170.138   -12568205.623    24249887.503    24249894.905
       606.000         408.000
 24  7 14  0 46  8.0000000  0  3R05R15R16
  -5899083.365    -4588181.010    26137188.956    26137201.175
       397.000         371.000
  -2231748.939    -1735820.455    26802551.761    26802566.571
       647.000         391.000
 -16187806.245   -12590478.093    24244526.590    24244534.055
       602.000         404.000
 24  7 14  0 46  9.0000000  0  3R05R15R16
  -5925412.046    -4608658.597    26132263.304    26132276.102
       401.000         371.000
  -2267603.480    -1763707.571    26795842.270    26795857.457
       641.000         382.000
 -16216442.845   -12612750.951    24239165.537    24239173.784
       609.000         411.000
 24  7 14  0 46 10.0000000  0  3R05R15R16
  -5951748.757    -4629142.398    26127336.536    26127348.786
       393.000         367.000
  -2303469.161    -1791603.315    26789130.804    26789145.676
       649.000         391.000
 -16245079.955   -12635024.226    24233804.928    24233812.281
       604.000         409.000
 24  7 14  0 46 11.0000000  0  3R05R15R16
  -5978093.450    -4649632.367    26122407.900    26122420.859
       400.000         375.000
  -2339346.091    -1819507.866    26782416.836    26782431.791
       651.000         389.000
 -16273717.561   -12657297.848    24228443.973    24228451.262
       606.000         407.000
 24  7 14  0 46 12.0000000  0  3R05R15R16
  -6004446.257    -4670128.686    26117477.747    26117489.846
       400.000         369.000
  -2375234.454    -1847421.443    26775701.042    26775716.563
       640.000         376.000
 -16302355.378   -12679571.695    24223082.607    24223090.228
       611.000         407.000
 24  7 14  0 46 13.0000000  0  3R05R15R16
  -6030807.087    -4690631.228    26112546.422    26112558.343
       403.000         375.000
  -2411133.581    -1875343.223    26768983.476    26768998.849
       649.000         385.000
 -16330993.600   -12701845.808    24217721.302    24217729.381
       609.000         406.000
 24  7 14  0 46 14.0000000  0  3R05R15R16
  -6057175.823    -4711139.860    26107613.221    26107625.001
       399.000         370.000
  -2447043.505    -1903273.270    26762263.514    26762278.905
       649.000         386.000
 -16359632.182   -12724120.226    24212359.900    24212368.437
       611.000         407.000
 24  7 14  0 46 15.0000000  0  3R05R15R16
  -6083552.516    -4731654.657    26102678.553    26102690.225
       404.000         378.000
  -2482964.516    -1931211.980    26755541.372    26755557.304
       646.000         374.000
 -16388271.076   -12746394.910    24206998.261    24207006.192
       613.000         409.000
 24  7 14  0 46 16.0000000  0  3R05R15R16
  -6109937.237    -4752175.727    26097742.368    26097754.202
       401.000         375.000
  -2518896.409    -1959159.091    26748817.376    26748832.585
       661.000         395.000
 -16416910.260   -12768669.772    24201637.046    24201645.701
       612.000         408.000
 24  7 14  0 46 17.0000000  0  3R05R15R16
  -6136329.982    -4772703.085    26092804.908    26092816.504
       397.000         375.000
  -2554839.314    -1987114.783    26742091.235    26742106.290
       644.000         383.000
 -16445549.686   -12790944.855    24196276.071    24196284.549
       607.000         407.000
 24  7 14  0 46 18.0000000  0  3R05R15R16
  -6162730.676    -4793236.619    26087865.902    26087877.897
       404.000         376.000
  -2590793.250    -2015079.111    26735362.931    26735378.528
       658.000         388.000
 -16474189.355   -12813220.106    24190914.523    24190923.893
       615.000         404.000
 24  7 14  0 46 19.0000000  0  3R05R15R16
  -6189139.394    -4813776.451    26082925.159    26082936.826
       401.000         377.000
  -2626757.949    -2043051.724    26728632.660    26728648.524
       660.000         390.000
 -16502829.219   -12835495.518    24185553.215    24185562.188
       615.000         406.000
 24  7 14  0 46 20.0000000  0  3R05R15R16
  -6215556.111    -4834322.547    26077983.458    26077994.668
       403.000         377.000
  -2662733.813    -2071033.165    26721900.511    26721916.032
       665.000         393.000
 -16531469.258   -12857771.074    24180191.442    24180198.081
       611.000         407.000
 24  7 14  0 46 21.0000000  0  3R05R15R16
  -6241980.696    -4854874.753    26073039.997    26073051.335
       404.000         379.000
  -2698720.685    -2099023.263    26715166.097    26715181.579
       647.000         380.000
 -16560109.423   -12880046.681    24174830.189    24174837.480
       615.000         414.000
 24  7 14  0 46 22.0000000  0  3R05R15R16
  -6268413.196    -4875433.138    26068094.841    26068106.689
       404.000         377.000
  -2734718.079    -2127021.390    26708429.676    26708445.297
       663.000         395.000
 -16588749.596   -12902322.462    24169468.426    24169475.879
       616.000         412.000
 24  7 14  0 46 23.0000000  0  3R05R15R16
  -6294853.465    -4895997.531    26063148.398    26063159.677
       404.000         377.000
  -2770726.220    -2155027.852    26701691.541    26701707.602
       659.000         386.000
 -16617389.913   -12924598.134    24164106.703    24164114.068
       616.000         413.000
 24  7 14  0 46 24.0000000  0  3R05R15R16
  -6321301.511    -4916567.956    26058200.611    26058212.139
       402.000         374.000
  -2806745.181    -2183042.762    26694951.285    26694966.897
       666.000         389.000
 -16646030.143   -12946873.880    24158745.649    24158753.078
       616.000         408.000
 24  7 14  0 46 25.0000000  0  3R05R15R16
  -6347757.359    -4937144.454    26053251.479    26053262.941
       401.000         378.000
  -2842774.978    -2211066.159    26688208.737    26688224.552
       661.000         391.000
 -16674670.424   -12969149.626    24153383.503    24153391.523
       617.000         416.000
 24  7 14  0 46 26.0000000  0  3R05R15R16
  -6374220.995    -4957727.007    26048299.907    26048312.240
       401.000         379.000
  -2878815.770    -2239098.275    26681464.884    26681481.031
       673.000         403.000
 -16703310.641   -12991425.318    24148022.508    24148029.965
       613.000         414.000
 24  7 14  0 46 27.0000000  0  3R05R15R16
  -6400692.334    -4978315.515    26043348.211    26043360.251
       403.000         380.000
  -2914867.385    -2267138.867    26674718.619    26674734.945
       668.000         397.000
 -16731950.793   -13013700.939    24142660.833    24142668.331
       617.000         413.000
 24  7 14  0 46 28.0000000  0  3R05R15R16
  -6427171.495    -4998910.149    26038394.662    26038406.387
       404.000         377.000
  -2950929.637    -2295187.761    26667970.116    26667986.691
       660.000         383.000
 -16760590.827   -13035976.451    24137299.635    24137306.640
       619.000         414.000
 24  7 14  0 46 29.0000000  0  3R05R15R16
  -6453658.342    -5019510.739    26033439.763    26033450.799
       403.000         382.000
  -2987002.596    -2323245.040    26661219.957    26661236.295
       656.000         382.000
 -16789230.708   -13058251.857    24131937.907    24131945.141
       623.000         418.000
 24  7 14  0 46 30.0000000  0  3R05R15R16
  -6480152.892    -5040117.304    26028482.537    26028494.102
       401.000         379.000
  -3023086.126    -2351310.511    26654468.084    26654484.709
       674.000         398.000
 -16817870.416   -13080527.134    24126576.140    24126583.335
       617.000         412.000
 24  7 14  0 46 31.0000000  0  3R05R15R16
  -6506655.111    -5060729.827    26023524.872    26023536.311
       403.000         379.000
  -3059180.279    -2379384.317    26647713.548    26647730.035
       663.000         392.000
 -16846509.873   -13102802.171    24121214.812    24121222.341
       620.000         417.000
 24  7 14  0 46 32.0000000  0  3R05R15R16
  -6533165.063    -5081348.401    26018565.769    26018576.645
       404.000         381.000
  -3095284.564    -2407465.784    26640957.426    26640974.057
       670.000         397.000
 -16875149.128   -13125077.183    24115853.581    24115860.731
       621.000         416.000
 24  7 14  0 46 33.0000000  0  3R05R15R16
  -6559682.756    -5101973.048    26013604.812    26013615.203
       403.000         382.000
  -3131399.353    -2435555.460    26634199.349    26634215.806
       667.000         394.000
 -16903788.256   -13147351.946    24110492.373    24110499.391
       622.000         414.000
 24  7 14  0 46 34.0000000  0  3R05R15R16
  -6586208.114    -5122603.675    26008643.006    26008652.911
       405.000         381.000
  -3167524.451    -2463653.115    26627439.187    26627455.858
       651.000         380.000
 -16932427.022   -13169626.533    24105131.099    24105138.366
       621.000         412.000
 24  7 14  0 46 35.0000000  0  3R05R15R16
  -6612741.052    -5143240.182    26003678.655    26003689.129
       406.000         384.000
  -3203659.742    -2491758.537    26620677.659    26620694.533
       679.000         403.000
 -16961065.522   -13191900.872    24099769.940    24099777.290
       622.000         415.000
 24  7 14  0 46 36.0000000  0  3R05R15R16
  -6639281.534    -5163882.512    25998713.882    25998723.968
       404.000         383.000
  -3239805.326    -2519871.948    26613913.314    26613930.595
       671.000         399.000
 -16989703.615   -13214174.926    24094409.419    24094415.833
       620.000         415.000
 24  7 14  0 46 37.0000000  0  3R05R15R16
  -6665829.627    -5184530.775    25993747.182    25993757.730
       405.000         384.000
  -3275961.156    -2547993.304    26607147.417    26607164.029
       675.000         396.000
 -17018341.323   -13236448.669    24089047.747    24089054.506
       620.000         417.000
 24  7 14  0 46 38.0000000  0  3R05R15R16
  -6692385.277    -5205184.917    25988779.489    25988790.090
       406.000         383.000
  -3312127.386    -2576122.781    26600379.654    26600396.137
       683.000         413.000
 -17046978.607   -13258722.054    24083686.678    24083693.896
       621.000         414.000
 24  7 14  0 46 39.0000000  0  3R05R15R16
  -6718948.448    -5225844.897    25983809.828    25983820.182
       403.000         384.000
  -3348304.090    -2604260.522    26593609.728    26593626.628
       649.000         373.000
 -17075615.423   -13280995.083    24078325.637    24078333.094
       621.000         416.000
 24  7 14  0 46 40.0000000  0  3R05R15R16
  -6745519.127    -5246510.712    25978839.035    25978849.174
       404.000         386.000
  -3384491.074    -2632406.286    26586838.084    26586855.086
       683.000         413.000
 -17104251.774   -13303267.753    24072964.689    24072971.987
       621.000         418.000
 24  7 14  0 46 41.0000000  0  3R05R15R16
  -6772097.427    -5267182.521    25973866.811    25973877.110
       401.000         383.000
  -3420688.873    -2660560.756    26580064.783    26580081.273
       665.000         386.000
 -17132887.698   -13325540.109    24067604.392    24067611.409
       622.000         415.000
 24  7 14  0 46 42.0000000  0  3R05R15R16
  -6798683.224    -5287860.159    25968892.940    25968903.384
       403.000         383.000
  -3456896.538    -2688722.723    26573289.400    26573306.178
       677.000         404.000
 -17161522.964   -13347811.879    24062243.331    24062250.720
       621.000         417.000
 24  7 14  0 46 43.0000000  0  3R05R15R16
  -6825276.489    -5308543.608    25963917.896    25963928.333
       405.000         384.000
  -3493114.311    -2716892.503    26566511.766    26566529.386
       684.000         407.000
 -17190157.646   -13370083.333    24056882.755    24056890.249
       622.000         419.000
 24  7 14  0 46 44.0000000  0  3R05R15R16
  -6851877.224    -5329232.884    25958942.128    25958951.985
       403.000         383.000
  -3529342.237    -2745070.262    26559732.719    26559750.487
       682.000         393.000
 -17218791.789   -13392354.327    24051522.607    24051530.100
       624.000         419.000
 24  7 14  0 46 45.0000000  0  3R05R15R16
  -6878485.344    -5349927.890    25953964.187    25953974.262
       404.000         389.000
  -3565580.334    -2773255.949    26552951.549    26552969.688
       654.000         389.000
 -17247425.347   -13414624.789    24046162.221    24046169.457
       624.000         419.000
 24  7 14  0 46 46.0000000  0  3R05R15R16
  -6905100.887    -5370628.676    25948985.021    25948994.926
       403.000         384.000
  -3601828.238    -2801449.146    26546168.621    26546186.378
       683.000         406.000
 -17276058.181   -13436894.755    24040802.373    24040809.542
       622.000         415.000
 24  7 14  0 46 47.0000000  0  3R05R15R16
  -6931723.805    -5391335.195    25944004.457    25944014.639
       398.000         384.000
  -3638085.986    -2829649.882    26539383.799    26539401.662
       660.000         399.000
 -17304690.313   -13459164.161    24035442.673    24035449.178
       612.000         418.000
 24  7 14  0 46 48.0000000  0  3R05R15R16
  -6958354.060    -5412047.402    25939022.824    25939032.665
       388.000         386.000
  -3674353.442    -2857858.074    26532596.901    26532614.505
       662.000         412.000
 -17333321.691   -13481432.975    24030082.532    24030089.606
       597.000         416.000
 24  7 14  0 46 49.0000000  0  3R05R15R16
  -6984991.715    -5432765.399    25934039.040    25934049.032
       400.000         386.000
  -3710630.966    -2886074.116    26525808.357    26525826.001
       659.000         387.000
 -17361952.284   -13503701.173    24024722.731    24024729.746
       616.000         418.000
 24  7 14  0 46 50.0000000  0  3R05R15R16
  -7011636.645    -5453489.033    25929054.865    25929064.484
       401.000         388.000
  -3746918.432    -2914297.953    26519017.683    26519035.552
       674.000         406.000
 -17390582.080   -13525968.748    24019363.090    24019370.060
       619.000         417.000
 24  7 14  0 46 51.0000000  0  3R05R15R16
  -7038288.924    -5474218.401    25924069.212    25924078.421
       394.000         387.000
  -3783215.985    -2942529.697    26512225.439    26512243.381
       646.000         398.000
 -17419211.159   -13548235.643    24014003.612    24014010.431
       610.000         416.000
 24  7 14  0 46 52.0000000  0  3R05R15R16
  -7064948.509    -5494953.460    25919081.163    25919091.240
       403.000         390.000
  -3819523.262    -2970768.936    26505431.489    26505449.208
       662.000         392.000
 -17447839.214   -13570502.002    24008644.327    24008650.837
       624.000         420.000
 24  7 14  0 46 53.0000000  0  3R05R15R16
  -7091615.376    -5515694.182    25914092.892    25914102.402
       404.000         387.000
  -3855840.201    -2999015.618    26498635.070    26498652.658
       687.000         417.000
 -17476466.356   -13592767.558    24003285.195    24003292.006
       623.000         416.000
 24  7 14  0 46 54.0000000  0  3R05R15R16
  -7118289.469    -5536440.513    25909102.239    25909112.678
       406.000         387.000
  -3892166.858    -3027269.868    26491836.976    26491855.035
       675.000         389.000
 -17505092.634   -13615032.349    23997926.255    23997933.347
       631.000         414.000
 24  7 14  0 46 55.0000000  0  3R05R15R16
  -7144970.783    -5557192.463    25904110.966    25904120.439
       405.000         389.000
  -3928503.343    -3055531.737    26485037.197    26485055.193
       686.000         408.000
 -17533717.953   -13637296.410    23992567.627    23992574.883
       629.000         416.000
 24  7 14  0 46 56.0000000  0  3R05R15R16
  -7171659.236    -5577949.937    25899118.915    25899128.021
       408.000         387.000
  -3964849.147    -3083800.690    26478235.434    26478253.650
       691.000         403.000
 -17562342.221   -13659559.706    23987208.916    23987215.866
       632.000         419.000
 24  7 14  0 46 57.0000000  0  3R05R15R16
  -7198354.880    -5598713.010    25894124.444    25894133.850
       407.000         390.000
  -4001204.816    -3112077.377    26471432.091    26471450.264
       665.000         392.000
 -17590965.507   -13681822.208    23981850.766    23981857.935
       632.000         420.000
 24  7 14  0 46 58.0000000  0  3R05R15R16
  -7225057.715    -5619481.678    25889128.949    25889138.525
       407.000         389.000
  -4037570.137    -3140361.561    26464626.829    26464645.470
       702.000         410.000
 -17619587.689   -13704083.849    23976492.370    23976499.366
       631.000         421.000
 24  7 14  0 46 59.0000000  0  3R05R15R16
  -7251767.692    -5640255.887    25884132.290    25884140.973
       409.000         389.000
  -4073945.152    -3168653.306    26457819.985    26457839.945
       683.000         405.000
 -17648208.777   -13726344.629    23971134.134    23971141.398
       632.000         423.000
 24  7 14  0 47  0.0000000  0  3R05R15R16
  -7278484.849    -5661035.700    25879133.920    25879143.063
       406.000         390.000
  -4110329.658    -3196952.396    26451011.319    26451028.998
       687.000         399.000
 -17676828.776   -13748604.576    23965776.515    23965783.090
       633.000         417.000
 24  7 14  0 47  1.0000000  0  3R05R15R16
  -7305209.113    -5681821.042    25874134.214    25874144.078
       408.000         390.000
  -4146723.210    -3225258.281    26444200.272    26444219.049
       671.000         389.000
 -17705447.628   -13770863.693    23960419.083    23960426.088
       632.000         422.000
 24  7 14  0 47  2.0000000  0  3R05R15R16
  -7331940.457    -5702611.888    25869133.566    25869142.575
       406.000         388.000
  -4183126.603    -3253571.977    26437387.912    26437406.013
       695.000         408.000
 -17734065.332   -13793121.780    23955061.700    23955068.465
       631.000         422.000
 24  7 14  0 47  3.0000000  0  3R05R15R16
  -7358678.882    -5723408.252    25864131.080    25864140.393
       406.000         390.000
  -4219539.281    -3281892.784    26430573.741    26430591.620
       687.000         406.000
 -17762681.693   -13815378.957    23949705.024    23949711.418
       631.000         420.000
 24  7 14  0 47  4.0000000  0  3R05R15R16
  -7385424.349    -5744210.100    25859128.059    25859137.054
       404.000         389.000
  -4255961.504    -3310221.038    26423757.786    26423775.626
       683.000         399.000
 -17791296.851   -13837635.114    23944347.967    23944354.767
       631.000         420.000
 24  7 14  0 47  5.0000000  0  3R05R15R16
  -7412176.847    -5765017.417    25854122.852    25854132.744
       406.000         389.000
  -4292393.083    -3338556.533    26416939.938    26416958.014
       681.000         403.000
 -17819910.713   -13859890.290    23938991.749    23938998.265
       630.000         421.000
 24  7 14  0 47  6.0000000  0  3R05R15R16
  -7438936.364    -5785830.191    25849116.963    25849126.322
       403.000         388.000
  -4328834.309    -3366899.667    26410120.217    26410138.443
       698.000         418.000
 -17848523.301   -13882144.446    23933634.881    23933641.971
       629.000         418.000
 24  7 14  0 47  7.0000000  0  3R05R15R16
  -7465702.915    -5806648.448    25844109.427    25844118.785
       403.000         388.000
  -4365284.657    -3395249.763    26403298.998    26403317.216
       694.000         414.000
 -17877134.546   -13904397.593    23928278.624    23928285.789
       631.000         419.000
 24  7 14  0 47  8.0000000  0  3R05R15R16
  -7492476.427    -5827472.113    25839101.070    25839110.181
       404.000         392.000
  -4401744.352    -3423607.157    26396475.960    26396493.943
       696.000         415.000
 -17905744.431   -13926649.675    23922922.752    23922929.750
       631.000         420.000
 24  7 14  0 47  9.0000000  0  3R05R15R16
  -7519256.895    -5848301.190    25834091.684    25834100.335
       403.000         394.000
  -4438213.526    -3451972.011    26389651.054    26389669.357
       678.000         402.000
 -17934352.903   -13948900.661    23917567.586    23917574.213
       628.000         424.000
 24  7 14  0 47 10.0000000  0  3R05R15R16
  -7546044.303    -5869135.668    25829079.667    25829088.601
       404.000         394.000
  -4474691.547    -3480343.529    26382824.431    26382842.764
       722.000         450.000
 -17962959.921   -13971150.521    23912212.137    23912218.723
       628.000         422.000
 24  7 14  0 47 11.0000000  0  3R05R15R16
  -7572838.637    -5889975.540    25824067.316    25824076.084
       402.000         394.000
  -4511179.525    -3508723.156    26375996.058    26376014.052
       649.000         375.000
 -17991565.432   -13993399.227    23906857.206    23906863.579
       623.000         424.000
 24  7 14  0 47 12.0000000  0  3R05R15R16
  -7599639.876    -5910820.783    25819053.327    25819062.270
       400.000         391.000
  -4547675.983    -3537109.007    26369166.182    26369183.858
       687.000         421.000
 -18020169.520   -14015646.747    23901502.559    23901508.901
       620.000         421.000
 24  7 14  0 47 13.0000000  0  3R05R15R16
  -7626447.989    -5931671.374    25814038.414    25814047.235
       401.000         393.000
  -4584181.734    -3565502.155    26362334.810    26362352.342
       685.000         406.000
 -18048771.930   -14037893.086    23896147.868    23896154.189
       626.000         425.000
 24  7 14  0 47 14.0000000  0  3R05R15R16
  -7653262.947    -5952527.295    25809021.845    25809030.676
       401.000         393.000
  -4620696.595    -3593902.376    26355501.082    26355519.169
       687.000         416.000
 -18077372.847   -14060138.207    23890793.569    23890800.026
       624.000         422.000
 24  7 14  0 47 15.0000000  0  3R05R15R16
  -7680084.743    -5973388.538    25804004.231    25804013.257
       403.000         392.000
  -4657220.227    -3622309.263    26348666.351    26348683.947
       706.000         422.000
 -18105972.085   -14082382.037    23885439.884    23885446.273
       633.000         425.000
 24  7 14  0 47 16.0000000  0  3R05R15R16
  -7706913.355    -5994255.078    25798985.060    25798993.780
       407.000         393.000
  -4693753.089    -3650723.404    26341829.321    26341847.266
       694.000         414.000
 -18134569.714   -14104624.595    23880086.166    23880092.640
       636.000         423.000
 24  7 14  0 47 17.0000000  0  3R05R15R16
  -7733748.769    -6015126.907    25793965.177    25793973.368
       404.000         392.000
  -4730294.985    -3679144.578    26334990.581    26335008.161
       705.000         419.000
 -18163165.688   -14126865.881    23874732.777    23874739.411
       634.000         422.000
 24  7 14  0 47 18.0000000  0  3R05R15R16
  -7760590.956    -6036004.006    25788943.724    25788951.785
       404.000         394.000
  -4766846.072    -3707572.992    26328150.524    26328168.431
       705.000         422.000
 -18191759.970   -14149105.849    23869379.951    23869386.836
       633.000         421.000
 24  7 14  0 47 19.0000000  0  3R05R15R16
  -7787439.902    -6056886.363    25783921.066    25783929.214
       405.000         396.000
  -4803406.141    -3736008.400    26321308.483    26321326.163
       665.000         391.000
 -18220352.523   -14171344.466    23864027.133    23864034.407
       634.000         425.000
 24  7 14  0 47 20.0000000  0  3R05R15R16
  -7814295.581    -6077773.960    25778896.734    25778905.484
       408.000         395.000
  -4839974.640    -3764450.108    26314464.862    26314482.521
       723.000         442.000
 -18248943.278   -14193581.686    23858675.021    23858682.110
       636.000         425.000
 24  7 14  0 47 21.0000000  0  3R05R15R16
  -7841157.966    -6098666.775    25773871.734    25773879.987
       409.000         394.000
  -4876552.126    -3792898.849    26307619.546    26307636.807
       714.000         429.000
 -18277532.220   -14215817.534    23853322.861    23853329.582
       641.000         426.000
 24  7 14  0 47 22.0000000  0  3R05R15R16
  -7868027.017    -6119564.779    25768844.793    25768853.347
       410.000         397.000
  -4913138.752    -3821354.837    26300772.586    26300790.001
       710.000         421.000
 -18306119.290   -14238051.818    23847971.207    23847978.098
       640.000         426.000
 24  7 14  0 47 23.0000000  0  3R05R15R16
  -7894902.725    -6140467.955    25763817.100    25763826.071
       409.000         394.000
  -4949734.020    -3849817.454    26293924.152    26293941.471
       702.000         419.000
 -18334704.465   -14260284.769    23842620.377    23842627.076
       641.000         426.000
 24  7 14  0 47 24.0000000  0  3R05R15R16
  -7921785.082    -6161376.307    25758788.340    25758796.959
       410.000         395.000
  -4986337.957    -3878286.750    26287074.109    26287091.205
       718.000         419.000
 -18363287.793   -14282516.170    23837269.339    23837276.196
       643.000         426.000
 24  7 14  0 47 25.0000000  0  3R05R15R16
  -7948674.105    -6182289.850    25753758.365    25753766.631
       411.000         397.000
  -5022950.871    -3906763.150    26280222.272    26280239.425
       722.000         432.000
 -18391869.180   -14304746.128    23831919.011    23831925.636
       642.000         423.000
 24  7 14  0 47 26.0000000  0  3R05R15R16
  -7975569.766    -6203208.559    25748726.804    25748735.434
       408.000         397.000
  -5059572.306    -3935246.086    26273368.738    26273385.568
       719.000         428.000
 -18420448.602   -14326974.536    23826568.652    23826575.242
       644.000         425.000
 24  7 14  0 47 27.0000000  0  3R05R15R16
  -8002472.035    -6224132.412    25743694.060    25743701.997
       412.000         395.000
  -5096202.422    -3963735.757    26266513.577    26266530.001
       719.000         428.000
 -18449026.013   -14349201.384    23821219.043    23821225.480
       642.000         429.000
 24  7 14  0 47 28.0000000  0  3R05R15R16
  -8029380.872    -6245061.378    25738659.862    25738668.028
       407.000         398.000
  -5132841.216    -3992232.180    26259656.822    26259673.105
       703.000         419.000
 -18477601.385   -14371426.645    23815869.629    23815876.402
       636.000         426.000
 24  7 14  0 47 29.0000000  0  3R05R15R16
  -8056296.251    -6265995.433    25733624.827    25733633.020
       408.000         397.000
  -5169488.512    -4020735.153    26252798.510    26252814.847
       719.000         432.000
 -18506174.655   -14393650.273    23810520.609    23810527.378
       639.000         427.000
 24  7 14  0 47 30.0000000  0  3R05R15R16
  -8083218.155    -6286934.566    25728588.472    25728596.616
       410.000         398.000
  -5206144.440    -4049244.845    26245938.113    26245955.139
       719.000         430.000
 -18534745.785   -14415872.225    23805172.310    23805178.738
       644.000         425.000
 24  7 14  0 47 31.0000000  0  3R05R15R16
  -8110146.573    -6307878.768    25723550.526    25723558.789
       412.000         400.000
  -5242808.972    -4077761.258    26239076.426    26239093.205
       706.000         420.000
 -18563314.820   -14438092.496    23799823.852    23799830.594
       647.000         429.000
 24  7 14  0 47 32.0000000  0  3R05R15R16
  -8137081.496    -6328828.029    25718512.134    25718520.017
       412.000         398.000
  -5279481.941    -4106284.180    26232213.264    26232229.942
       729.000         436.000
 -18591881.558   -14460311.110    23794476.067    23794482.268
       644.000         428.000
 24  7 14  0 47 33.0000000  0  3R05R15R16
  -8164022.914    -6349782.354    25713471.865    25713479.709
       412.000         400.000
  -5316163.605    -4134813.973    26225348.571    26225365.083
       734.000         444.000
 -18620446.268   -14482528.062    23789128.714    23789135.216
       648.000         429.000
 24  7 14  0 47 34.0000000  0  3R05R15R16
  -8190970.794    -6370741.706    25708430.493    25708439.085
       411.000         400.000
  -5352853.809    -4163350.427    26218482.591    26218498.423
       699.000         406.000
 -18649008.670   -14504743.207    23783781.823    23783788.434
       649.000         427.000
 24  7 14  0 47 35.0000000  0  3R05R15R16
  -8217925.185    -6391706.168    25703388.512    25703396.258
       409.000         399.000
  -5389552.176    -4191893.102    26211614.427    26211630.658
       731.000         439.000
 -18677568.810   -14526956.618    23778435.299    23778441.443
       645.000         427.000
 24  7 14  0 47 36.0000000  0  3R05R15R16
  -8244885.917    -6412675.531    25698344.721    25698352.628
       409.000         397.000
  -5426259.184    -4220442.621    26204744.999    26204760.486
       738.000         443.000
 -18706126.596   -14549168.222    23773089.185    23773095.521
       645.000         427.000
 24  7 14  0 47 37.0000000  0  3R05R15R16
  -8271852.982    -6433649.801    25693299.899    25693307.484
       407.000         400.000
  -5462974.588    -4248998.715    26197874.010    26197889.733
       721.000         433.000
 -18734682.062   -14571378.001    23767742.918    23767749.863
       642.000         427.000
 24  7 14  0 47 38.0000000  0  3R05R15R16
  -8298826.439    -6454629.053    25688253.879    25688261.751
       406.000         401.000
  -5499698.218    -4277561.163    26191001.555    26191016.970
       719.000         434.000
 -18763235.150   -14593585.928    23762398.330    23762404.587
       641.000         428.000
 24  7 14  0 47 39.0000000  0  3R05R15R16
  -8325806.236    -6475613.225    25683206.473    25683213.985
       409.000         401.000
  -5536430.150    -4306130.057    26184127.367    26184142.776
       713.000         424.000
 -18791785.852   -14615792.003    23757053.309    23757060.174
       642.000         428.000
 24  7 14  0 47 40.0000000  0  3R05R15R16
  -8352792.383    -6496602.340    25678157.921    25678166.284
       406.000         401.000
  -5573170.427    -4334705.481    26177251.448    26177267.188
       722.000         429.000
 -18820334.146   -14637996.207    23751709.016    23751715.527
       641.000         426.000
 24  7 14  0 47 41.0000000  0  3R05R15R16
  -8379784.835    -6517596.372    25673108.489    25673116.525
       409.000         398.000
  -5609918.829    -4363287.190    26170374.368    26170389.561
       731.000         440.000
 -18848879.934   -14660198.515    23746365.215    23746371.530
       645.000         428.000
 24  7 14  0 47 42.0000000  0  3R05R15R16
  -8406783.589    -6538595.310    25668057.942    25668065.555
       412.000         401.000
  -5646675.411    -4391875.250    26163495.418    26163510.541
       737.000         437.000
 -18877423.228   -14682398.778    23741022.037    23741028.226
       647.000         428.000
 24  7 14  0 47 43.0000000  0  3R05R15R16
  -8433788.590    -6559599.112    25663005.748    25663013.756
       414.000         403.000
  -5683440.167    -4420469.674    26156615.194    26156630.553
       723.000         430.000
 -18905963.948   -14704597.150    23735679.090    23735685.794
       649.000         431.000
 24  7 14  0 47 44.0000000  0  3R05R15R16
  -8460799.831    -6580607.765    25657952.562    25657960.542
       413.000         403.000
  -5720212.840    -4449070.157    26149733.526    26149748.418
       726.000         436.000
 -18934502.139   -14726793.416    23730336.629    23730342.506
       650.000         432.000
 24  7 14  0 47 45.0000000  0  3R05R15R16
  -8487817.273    -6601621.230    25652898.345    25652906.248
       412.000         403.000
  -5756993.553    -4477676.867    26142849.921    26142864.674
       743.000         443.000
 -18963037.709   -14748987.756    23724994.566    23725000.803
       650.000         431.000
 24  7 14  0 47 46.0000000  0  3R05R15R16
  -8514840.933    -6622639.536    25647843.014    25647850.863
       412.000         401.000
  -5793782.288    -4506289.803    26135965.130    26135979.695
       751.000         452.000
 -18991570.658   -14771180.026    23719653.170    23719659.651
       652.000         429.000
 24  7 14  0 47 47.0000000  0  3R05R15R16
  -8541870.790    -6643662.665    25642786.827    25642794.413
       414.000         403.000
  -5830579.269    -4534909.257    26129079.058    26129093.130
       725.000         433.000
 -19020100.927   -14793370.215    23714312.060    23714318.913
       648.000         431.000
 24  7 14  0 47 48.0000000  0  3R05R15R16
  -8568906.823    -6664690.598    25637728.709    25637736.659
       413.000         402.000
  -5867384.278    -4563534.976    26122191.140    26122205.495
       739.000         442.000
 -19048628.470   -14815558.280    23708971.580    23708978.054
       651.000         430.000
 24  7 14  0 47 49.0000000  0  3R05R15R16
  -8595948.942    -6685723.249    25632669.879    25632677.519
       416.000         403.000
  -5904197.158    -4592166.781    26115301.810    26115315.613
       746.000         444.000
 -19077153.240   -14837744.192    23703631.696    23703638.127
       654.000         429.000
 24  7 14  0 47 50.0000000  0  3R05R15R16
  -8622997.170    -6706760.649    25627609.616    25627617.473
       416.000         405.000
  -5941017.928    -4620804.702    26108410.878    26108424.937
       735.000         437.000
 -19105675.214   -14859927.925    23698292.491    23698298.929
       656.000         429.000
 24  7 14  0 47 51.0000000  0  3R05R15R16
  -8650051.454    -6727802.744    25622548.895    25622556.285
       415.000         404.000
  -5977846.562    -4649448.744    26101518.545    26101532.597
       744.000         450.000
 -19134194.334   -14882109.424    23692953.656    23692960.210
       653.000         433.000
 24  7 14  0 47 52.0000000  0  3R05R15R16
  -8677111.840    -6748849.595    25617486.522    25617494.413
       415.000         404.000
  -6014683.072    -4678098.916    26094624.836    26094638.771
       741.000         441.000
 -19162710.695   -14904288.865    23687615.224    23687621.499
       653.000         430.000
 24  7 14  0 47 53.0000000  0  3R05R15R16
  -8704178.303    -6769901.188    25612423.278    25612430.757
       412.000         404.000
  -6051527.428    -4706755.201    26087729.400    26087743.544
       749.000         451.000
 -19191224.180   -14926465.967    23682277.486    23682283.600
       650.000         431.000
 24  7 14  0 47 54.0000000  0  3R05R15R16
  -8731250.836    -6790957.509    25607357.983    25607366.150
       411.000         402.000
  -6088379.634    -4735417.623    26080832.616    26080846.350
       738.000         442.000
 -19219734.742   -14948640.800    23676940.158    23676946.603
       648.000         431.000
 24  7 14  0 47 55.0000000  0  3R05R15R16
  -8758329.388    -6812018.509    25602292.940    25602300.448
       414.000         405.000
  -6125239.595    -4764086.097    26073934.445    26073949.337
       730.000         432.000
 -19248242.334   -14970813.330    23671603.592    23671610.117
       652.000         431.000
 24  7 14  0 47 56.0000000  0  3R05R15R16
  -8785413.926    -6833084.166    25597226.130    25597233.583
       412.000         406.000
  -6162107.148    -4792760.426    26067034.771    26067048.880
       751.000         455.000
 -19276746.956   -14992983.573    23666267.197    23666273.972
       648.000         431.000
 24  7 14  0 47 57.0000000  0  3R05R15R16
  -8812504.388    -6854154.415    25592158.192    25592165.814
       410.000         405.000
  -6198982.452    -4821440.820    26060133.942    26060147.772
       733.000         439.000
 -19305248.561   -15015151.468    23660932.040    23660938.298
       650.000         431.000
 24  7 14  0 47 58.0000000  0  3R05R15R16
  -8839600.797    -6875229.299    25587088.767    25587096.239
       413.000         405.000
  -6235865.308    -4850127.038    26053231.187    26053245.093
       744.000         449.000
 -19333747.092   -15037316.964    23655596.822    23655603.338
       650.000         432.000
 24  7 14  0 47 59.0000000  0  3R05R15R16
  -8866703.113    -6896308.778    25582019.005    25582026.552
       413.000         405.000
  -6272755.843    -4878819.263    26046327.409    26046341.785
       743.000         447.000
 -19362242.528   -15059480.062    23650262.146    23650268.576
       649.000         433.000
 24  7 14  0 48  0.0000000  0  3R05R15R16
  -8893811.359    -6917392.874    25576947.773    25576955.328
       413.000         404.000
  -6309653.920    -4907517.342    26039422.294    26039435.819
       742.000         440.000
 -19390734.858   -15081640.731    23644928.633    23644934.620
       649.000         431.000
 24  7 14  0 48  1.0000000  0  3R05R15R16
  -8920925.472    -6938481.517    25571875.216    25571883.221
       415.000         407.000
  -6346559.540    -4936221.299    26032515.560    26032529.068
       751.000         454.000
 -19419223.982   -15103798.962    23639595.050    23639601.607
       651.000         430.000
 24  7 14  0 48  2.0000000  0  3R05R15R16
  -8948045.478    -6959574.754    25566802.019    25566809.300
       416.000         407.000
  -6383472.651    -4964931.075    26025607.476    26025620.958
       743.000         442.000
 -19447710.084   -15125954.717    23634262.630    23634268.964
       653.000         432.000
 24  7 14  0 48  3.0000000  0  3R05R15R16
  -8975171.317    -6980672.521    25561727.455    25561734.870
       415.000         408.000
  -6420393.205    -4993646.622    26018698.268    26018711.091
       753.000         451.000
 -19476192.849   -15148107.983    23628930.633    23628936.719
       651.000         431.000
 24  7 14  0 48  4.0000000  0  3R05R15R16
  -9002302.995    -7001774.843    25556652.329    25556659.241
       415.000         408.000
  -6457321.234    -5022368.012    26011786.891    26011799.932
       754.000         454.000
 -19504672.323   -15170258.616    23623599.240    23623605.365
       650.000         431.000
 24  7 14  0 48  5.0000000  0  3R05R15R16
  -9029440.459    -7022881.662    25551574.938    25551582.615
       413.000         409.000
  -6494256.633    -5051095.122    26004874.953    26004887.896
       747.000         450.000
 -19533148.506   -15192406.761    23618268.293    23618275.122
       651.000         433.000
 24  7 14  0 48  6.0000000  0  3R05R15R16
  -9056583.702    -7043992.972    25546497.509    25546504.427
       416.000         406.000
  -6531199.357    -5079827.917    25997961.535    25997973.882
       753.000         452.000
 -19561621.420   -15214552.326    23612937.755    23612944.539
       649.000         433.000
 24  7 14  0 48  7.0000000  0  3R05R15R16
  -9083732.712    -7065108.769    25541418.240    25541425.774
       415.000         408.000
  -6568149.450    -5108566.469    25991046.389    25991059.153
       754.000         449.000
 -19590090.974   -15236695.277    23607608.100    23607614.829
       653.000         434.000
 24  7 14  0 48  8.0000000  0  3R05R15R16
  -9110887.450    -7086229.016    25536338.802    25536345.953
       417.000         409.000
  -6605106.796    -5137310.639    25984129.876    25984142.492
       753.000         450.000
 -19618557.131   -15258835.598    23602279.106    23602285.818
       651.000         434.000
 24  7 14  0 48  9.0000000  0  3R05R15R16
  -9138047.920    -7107353.727    25531257.765    25531264.693
       415.000         408.000
  -6642071.395    -5166060.441    25977211.913    25977224.576
       762.000         455.000
 -19647019.859   -15280973.249    23596951.241    23596957.228
       651.000         435.000
 24  7 14  0 48 10.0000000  0  3R05R15R16
  -9165214.077    -7128482.871    25526175.779    25526183.085
       418.000         407.000
  -6679043.247    -5194815.904    25970293.152    25970305.299
       756.000         448.000
 -19675479.118   -15303108.201    23591623.394    23591630.308
       655.000         436.000
 24  7 14  0 48 11.0000000  0  3R05R15R16
  -9192385.884    -7149616.423    25521092.635    25521099.896
       416.000         409.000
  -6716022.247    -5223576.915    25963372.385    25963385.111
       762.000         457.000
 -19703934.933   -15325240.401    23586296.507    23586302.849
       657.000         435.000
 24  7 14  0 48 12.0000000  0  3R05R15R16
  -9219563.403    -7170754.373    25516008.100    25516015.042
       418.000         407.000
  -6753008.467    -5252343.562    25956450.747    25956463.203
       762.000         452.000
 -19732387.094   -15347369.912    23580970.177    23580976.593
       653.000         431.000
 24  7 14  0 48 13.0000000  0  3R05R15R16
  -9246746.512    -7191896.682    25510922.906    25510930.012
       418.000         409.000
  -6790001.833    -5281115.783    25949527.753    25949539.794
       761.000         454.000
 -19760835.786   -15369496.622    23575644.239    23575650.961
       655.000         433.000
 24  7 14  0 48 14.0000000  0  3R05R15R16
  -9273935.211    -7213043.350    25505836.610    25505843.500
       419.000         409.000
  -6827002.296    -5309893.522    25942603.293    25942615.086
       759.000         453.000
 -19789280.821   -15391620.530    23570319.550    23570326.145
       651.000         434.000
 24  7 14  0 48 15.0000000  0  3R05R15R16
  -9301129.547    -7234194.377    25500749.416    25500756.605
       412.000         409.000
  -6864009.766    -5338676.693    25935677.591    25935689.506
       748.000         454.000
 -19817722.294   -15413741.600    23564995.237    23565002.140
       643.000         434.000
 24  7 14  0 48 16.0000000  0  3R05R15R16
  -9328329.380    -7255349.745    25495660.862    25495668.315
       410.000         410.000
  -6901024.248    -5367465.318    25928750.243    25928762.132
       754.000         457.000
 -19846160.041   -15435859.850    23559671.747    23559677.799
       642.000         435.000
 24  7 14  0 48 17.0000000  0  3R05R15R16
  -9355534.815    -7276509.427    25490571.454    25490578.408
       414.000         411.000
  -6938045.737    -5396259.419    25921821.942    25921834.158
       756.000         451.000
 -19874594.097   -15457975.191    23554349.091    23554354.831
       651.000         432.000
 24  7 14  0 48 18.0000000  0  3R05R15R16
  -9382745.788    -7297673.441    25485480.478    25485487.710
       414.000         409.000
  -6975074.089    -5425058.817    25914892.397    25914904.008
       764.000         461.000
 -19903024.410   -15480087.634    23549026.440    23549032.839
       650.000         436.000
 24  7 14  0 48 19.0000000  0  3R05R15R16
  -9411260.512    -7319851.482    25480146.361    25480153.668
       414.000         408.000
  -7012109.452    -5453863.733    25907961.570    25907972.961
       757.000         453.000
 -19931450.952   -15502197.142    23543704.852    23543711.073
       652.000         435.000
 24  7 14  0 48 20.0000000  0  3R05R15R16
  -9438482.719    -7341024.245    25475054.057    25475061.349
       416.000         411.000
  -7049151.687    -5482673.990    25901029.279    25901040.574
       759.000         456.000
 -19959873.701   -15524303.696    23538383.959    23538390.471
       649.000         436.000
 24  7 14  0 48 21.0000000  0  3R05R15R16
  -9465710.436    -7362201.290    25469960.883    25469968.015
       407.000         409.000
  -7086200.755    -5511489.553    25894095.936    25894107.044
       750.000         458.000
 -19988292.646   -15546407.356    23533063.974    23533070.090
       639.000         437.000
 24  7 14  0 48 22.0000000  0  3R05R15R16
  -9492943.484    -7383382.495    25464865.873    25464873.411
       410.000         410.000
  -7123256.665    -5540310.452    25887160.888    25887172.188
       755.000         458.000
 -20016707.675   -15568507.891    23527744.611    23527750.967
       641.000         435.000
 24  7 14  0 48 23.0000000  0  3R05R15R16
  -9520182.064    -7404567.984    25459770.401    25459777.278
       412.000         412.000
  -7160319.367    -5569136.659    25880225.003    25880236.472
       765.000         459.000
 -20045118.906   -15590605.437    23522425.915    23522432.223
       648.000         435.000
 24  7 14  0 48 24.0000000  0  3R05R15R16
  -9547426.037    -7425757.720    25454674.287    25454681.149
       415.000         410.000
  -7197388.826    -5597968.149    25873287.839    25873298.898
       765.000         458.000
 -20073526.106   -15612699.955    23517108.201    23517114.405
       651.000         437.000
 24  7 14  0 48 25.0000000  0  3R05R15R16
  -9574675.402    -7446951.595    25449576.544    25449583.428
       419.000         413.000
  -7234464.993    -5626804.866    25866349.076    25866360.321
       762.000         456.000
 -20101929.321   -15634791.301    23511790.793    23511797.345
       650.000         435.000
 24  7 14  0 48 26.0000000  0  3R05R15R16
  -9601930.068    -7468149.610    25444477.937    25444484.791
       415.000         412.000
  -7271547.765    -5655646.690    25859409.288    25859420.105
       764.000         458.000
 -20130328.504   -15656879.548    23506474.551    23506480.890
       651.000         437.000
 24  7 14  0 48 27.0000000  0  3R05R15R16
  -9629190.033    -7489351.744    25439377.773    25439385.238
       416.000         413.000
  -7308637.129    -5684493.616    25852468.217    25852479.050
       774.000         461.000
 -20158723.633   -15678964.614    23501158.880    23501165.243
       651.000         437.000
 24  7 14  0 48 28.0000000  0  3R05R15R16
  -9656455.297    -7510558.000    25434277.766    25434284.905
       418.000         410.000
  -7345733.162    -5713345.754    25845526.052    25845536.483
       768.000         461.000
 -20187114.655   -15701046.495    23495843.895    23495850.061
       654.000         436.000
 24  7 14  0 48 29.0000000  0  3R05R15R16
  -9683725.836    -7531768.356    25429176.120    25429182.990
       419.000         413.000
  -7382835.777    -5742203.043    25838582.835    25838593.441
       769.000         462.000
 -20215501.578   -15723125.191    23490530.066    23490536.112
       653.000         439.000
 24  7 14  0 48 30.0000000  0  3R05R15R16
  -9711001.631    -7552982.801    25424073.685    25424080.373
       419.000         412.000
  -7419944.882    -5771065.375    25831638.038    25831648.540
       770.000         458.000
 -20243884.364   -15745200.672    23485216.750    23485222.500
       652.000         435.000
 24  7 14  0 48 31.0000000  0  3R05R15R16
  -9738282.710    -7574201.349    25418970.052    25418977.106
       421.000         414.000
  -7457060.399    -5799932.670    25824691.948    25824702.215
       775.000         460.000
 -20272262.903   -15767272.825    23479904.101    23479910.531
       656.000         437.000
 24  7 14  0 48 32.0000000  0  3R05R15R16
  -9765568.973    -7595423.959    25413865.558    25413872.110
       420.000         413.000
  -7494182.415    -5828805.029    25817744.728    25817755.331
       777.000         464.000
 -20300637.384   -15789341.796    23474592.233    23474598.772
       654.000         438.000
 24  7 14  0 48 33.0000000  0  3R05R15R16
  -9792860.446    -7616650.543    25408760.126    25408766.678
       417.000         412.000
  -7531310.901    -5857682.439    25810796.832    25810806.873
       774.000         462.000
 -20329007.476   -15811407.467    23469281.089    23469287.240
       653.000         438.000
 24  7 14  0 48 34.0000000  0  3R05R15R16
  -9820157.080    -7637881.244    25403653.346    25403660.169
       419.000         414.000
  -7568445.746    -5886564.788    25803847.017    25803857.402
       772.000         465.000
 -20357373.273   -15833469.727    23463971.031    23463977.337
       652.000         439.000
 24  7 14  0 48 35.0000000  0  3R05R15R16
  -9847458.877    -7659115.846    25398546.152    25398553.207
       418.000         413.000
  -7605586.923    -5915452.068    25796896.634    25796906.465
       775.000         467.000
 -20385734.729   -15855528.613    23458661.506    23458668.001
       646.000         439.000
 24  7 14  0 48 36.0000000  0  3R05R15R16
  -9874765.765    -7680354.476    25393437.426    25393444.477
       413.000         413.000
  -7642734.428    -5944344.290    25789944.561    25789954.713
       765.000         460.000
 -20414091.819   -15877584.089    23453353.477    23453359.263
       644.000         437.000
 24  7 14  0 48 37.0000000  0  3R05R15R16
  -9902077.746    -7701597.061    25388328.487    25388335.220
       414.000         411.000
  -7679888.150    -5973241.335    25782991.339    25783001.750
       774.000         469.000
 -20442444.497   -15899636.155    23448045.507    23448051.351
       646.000         437.000
 24  7 14  0 48 38.0000000  0  3R05R15R16
  -9929394.826    -7722843.582    25383217.881    25383224.876
       416.000         413.000
  -7717048.121    -6002143.250    25776037.332    25776047.462
       769.000         466.000
 -20470792.741   -15921684.761    23442738.519    23442744.796
       645.000         438.000
 24  7 14  0 48 39.0000000  0  3R05R15R16
  -9956716.985    -7744094.066    25378107.205    25378113.377
       418.000         414.000
  -7754214.294    -6031049.992    25769082.106    25769091.781
       770.000         464.000
 -20499136.526   -15943729.900    23437432.537    23437438.730
       649.000         437.000
 24  7 14  0 48 40.0000000  0  3R05R15R16
  -9984044.173    -7765348.454    25372994.766    25373001.419
       418.000         411.000
  -7791386.616    -6059961.506    25762125.357    25762135.314
       778.000         466.000
 -20527475.806   -15965771.530    23432127.560    23432133.488
       649.000         440.000
 24  7 14  0 48 41.0000000  0  3R05R15R16
 -10011376.387    -7786606.745    25367881.768    25367888.390
       421.000         415.000
  -7828565.086    -6088877.807    25755167.784    25755177.715
       780.000         469.000
 -20555810.563   -15987809.608    23426823.186    23426829.311
       652.000         438.000
 24  7 14  0 48 42.0000000  0  3R05R15R16
 -10038713.629    -7807868.924    25362767.275    25362774.054
       422.000         413.000
  -7865749.628    -6117798.822    25748209.165    25748218.982
       780.000         465.000
 -20584140.730   -16009844.156    23421519.541    23421525.461
       652.000         438.000
 24  7 14  0 48 43.0000000  0  3R05R15R16
 -10066055.797    -7829134.977    25357652.562    25357659.105
       423.000         413.000
  -7902940.232    -6146724.561    25741249.172    25741259.116
       787.000         468.000
 -20612466.251   -16031875.060    23416217.122    23416223.173
       653.000         438.000
 24  7 14  0 48 44.0000000  0  3R05R15R16
 -10093402.939    -7850404.904    25352536.191    25352543.122
       420.000         413.000
  -7940136.857    -6175655.000    25734287.870    25734297.783
       782.000         468.000
 -20640787.079   -16053902.391    23410915.395    23410921.498
       653.000         439.000
 24  7 14  0 48 45.0000000  0  3R05R15R16
 -10120755.055    -7871678.671    25347420.114    25347426.158
       423.000         414.000
  -7977339.427    -6204590.065    25727325.901    25727335.478
       792.000         469.000
 -20669103.308   -16075926.078    23405614.296    23405620.384
       656.000         441.000
 24  7 14  0 48 46.0000000  0  3R05R15R16
 -10148112.050    -7892956.276    25342302.146    25342308.966
       429.000         416.000
  -8014547.925    -6233529.734    25720362.631    25720372.051
       795.000         470.000
 -20697414.774   -16097946.101    23400314.468    23400320.369
       660.000         441.000
 24  7 14  0 48 47.0000000  0  3R05R15R16
 -10175473.938    -7914237.656    25337183.267    25337189.960
       428.000         416.000
  -8051762.349    -6262474.019    25713398.371    25713407.595
       792.000         467.000
 -20725721.501   -16119962.407    23395015.353    23395021.392
       662.000         442.000
 24  7 14  0 48 48.0000000  0  3R05R15R16
 -10202840.695    -7935522.825    25332063.900    25332070.285
       427.000         414.000
  -8088982.653    -6291422.871    25706432.756    25706441.919
       799.000         471.000
 -20754023.424   -16141974.982    23389716.949    23389723.520
       663.000         439.000
 24  7 14  0 48 49.0000000  0  3R05R15R16
 -10230212.302    -7956811.757    25326943.411    25326949.838
       428.000         417.000
  -8126208.797    -6320376.261    25699466.239    25699475.761
       800.000         471.000
 -20782320.513   -16163983.784    23384419.586    23384425.749
       663.000         439.000
 24  7 14  0 48 50.0000000  0  3R05R15R16
 -10257588.744    -7978104.464    25321822.355    25321828.824
       429.000         415.000
  -8163440.765    -6349334.207    25692498.507    25692508.119
       797.000         468.000
 -20810612.756   -16185988.821    23379123.543    23379129.215
       664.000         441.000
 24  7 14  0 48 51.0000000  0  3R05R15R16
 -10284969.983    -7999400.878    25316699.907    25316706.474
       432.000         416.000
  -8200678.473    -6378296.612    25685529.684    25685539.190
       808.000         474.000
 -20838900.125   -16207990.073    23373827.910    23373833.690
       664.000         439.000
 24  7 14  0 48 52.0000000  0  3R05R15R16
 -10312355.958    -8020700.997    25311576.514    25311583.107
       429.000         416.000
  -8237921.923    -6407263.496    25678559.962    25678569.338
       804.000         473.000
 -20867182.538   -16229987.482    23368533.353    23368539.220
       663.000         441.000
 24  7 14  0 48 53.0000000  0  3R05R15R16
 -10339746.731    -8042004.873    25306452.692    25306458.862
       429.000         417.000
  -8275171.059    -6436234.805    25671589.202    25671598.059
       799.000         470.000
 -20895459.985   -16251981.007    23363239.777    23363245.666
       664.000         443.000
 24  7 14  0 48 54.0000000  0  3R05R15R16
 -10367142.209    -8063312.432    25301327.574    25301333.728
       429.000         416.000
  -8312425.853    -6465210.517    25664617.360    25664626.426
       802.000         471.000
 -20923732.419   -16273970.647    23357947.089    23357952.620
       662.000         439.000
 24  7 14  0 48 55.0000000  0  3R05R15R16
 -10394542.438    -8084623.638    25296201.731    25296208.052
       430.000         418.000
  -8349686.315    -6494190.659    25657644.351    25657653.332
       799.000         469.000
 -20951999.793   -16295956.365    23352655.299    23352661.402
       662.000         440.000
 24  7 14  0 48 56.0000000  0  3R05R15R16
 -10421947.349    -8105938.492    25291075.108    25291080.947
       431.000         418.000
  -8386952.342    -6523175.135    25650669.979    25650679.562
       802.000         470.000
 -20980262.132   -16317938.145    23347364.393    23347370.101
       660.000         442.000
 24  7 14  0 48 57.0000000  0  3R05R15R16
 -10449356.942    -8127256.993    25285947.609    25285953.930
       430.000         415.000
  -8424223.863    -6552163.866    25643695.158    25643704.304
       803.000         471.000
 -21008519.353   -16339915.950    23342074.420    23342080.704
       660.000         443.000
 24  7 14  0 48 58.0000000  0  3R05R15R16
 -10476771.175    -8148579.110    25280818.760    25280825.065
       427.000         417.000
  -8461500.895    -6581156.883    25636719.315    25636728.224
       805.000         474.000
 -21036771.428   -16361889.752    23336785.887    23336792.001
       661.000         441.000
 24  7 14  0 48 59.0000000  0  3R05R15R16
 -10504190.037    -8169904.829    25275689.407    25275695.787
       429.000         418.000
  -8498783.412    -6610154.166    25629742.244    25629750.894
       803.000         475.000
 -21065018.313   -16383859.525    23331498.106    23331504.041
       660.000         441.000
 24  7 14  0 49  0.0000000  0  3R05R15R16
 -10531613.505    -8191234.128    25270559.354    25270565.694
       430.000         415.000
  -8536071.377    -6639155.696    25622764.056    25622772.991
       808.000         474.000
 -21093259.985   -16405825.240    23326211.113    23326216.745
       660.000         441.000
 24  7 14  0 49  1.0000000  0  3R05R15R16
 -10559041.538    -8212566.999    25265428.260    25265433.999
       432.000         416.000
  -8573364.721    -6668161.424    25615784.977    25615793.785
       808.000         470.000
 -21121496.431   -16427786.837    23320925.145    23320931.343
       661.000         441.000
 24  7 14  0 49  2.0000000  0  3R05R15R16
 -10586474.146    -8233903.427    25260296.469    25260302.841
       431.000         419.000
  -8610663.408    -6697171.301    25608804.746    25608813.222
       808.000         475.000
 -21149727.555   -16449744.379    23315640.063    23315646.161
       660.000         442.000
 24  7 14  0 49  3.0000000  0  3R05R15R16
 -10613911.282    -8255243.283    25255163.878    25255170.296
       433.000         417.000
  -8647967.444    -6726185.338    25601823.856    25601832.311
       805.000         472.000
 -21177953.330   -16471697.792    23310356.446    23310361.986
       662.000         443.000
 24  7 14  0 49  4.0000000  0  3R05R15R16
 -10641352.898    -8276586.748    25250030.493    25250036.522
       433.000         417.000
  -8685276.793    -6755203.512    25594841.797    25594850.745
       813.000         476.000
 -21206173.803   -16493646.968    23305073.197    23305079.125
       662.000         440.000
 24  7 14  0 49  5.0000000  0  3R05R15R16
 -10668799.042    -8297933.676    25244895.487    25244901.815
       432.000         419.000
  -8722591.409    -6784225.785    25587858.584    25587866.958
       808.000         473.000
 -21234388.833   -16515592.016    23299791.273    23299797.411
       661.000         443.000
 24  7 14  0 49  6.0000000  0  3R05R15R16
 -10696249.619    -8319284.087    25239760.892    25239766.744
       432.000         419.000
  -8759911.219    -6813252.101    25580874.460    25580882.600
       814.000         475.000
 -21262598.469   -16537532.808    23294510.593    23294516.613
       658.000         442.000
 24  7 14  0 49  7.0000000  0  3R05R15R16
 -10723704.654    -8340637.943    25234624.684    25234630.858
       434.000         417.000
  -8797236.191    -6842282.438    25573889.530    25573897.821
       812.000         476.000
 -21290802.639   -16559469.354    23289230.535    23289236.607
       661.000         444.000
 24  7 14  0 49  8.0000000  0  3R05R15R16
 -10751164.094    -8361995.240    25229487.718    25229493.770
       434.000         417.000
  -8834566.309    -6871316.796    25566903.479    25566911.870
       809.000         474.000
 -21319001.291   -16581401.612    23283951.680    23283957.580
       663.000         443.000
 24  7 14  0 49  9.0000000  0  3R05R15R16
 -10778627.928    -8383355.949    25224349.820    25224356.139
       432.000         418.000
  -8871901.513    -6900355.108    25559916.631    25559925.057
       810.000         477.000
 -21347194.400   -16603329.567    23278673.731    23278679.622
       658.000         443.000
 24  7 14  0 49 10.0000000  0  3R05R15R16
 -10806096.130    -8404720.058    25219211.485    25219217.747
       431.000         417.000
  -8909241.792    -6929397.372    25552928.765    25552937.259
       809.000         476.000
 -21375381.937   -16625253.187    23273397.090    23273402.613
       659.000         441.000
 24  7 14  0 49 11.0000000  0  3R05R15R16
 -10833568.676    -8426087.510    25214072.449    25214078.145
       430.000         419.000
  -8946587.129    -6958443.573    25545939.991    25545947.962
       812.000         478.000
 -21403563.936   -16647172.515    23268121.457    23268127.074
       655.000         442.000
 24  7 14  0 49 12.0000000  0  3R05R15R16
 -10861045.521    -8447458.442    25208932.182    25208938.148
       433.000         420.000
  -8983937.482    -6987493.684    25538950.036    25538958.142
       808.000         471.000
 -21431740.232   -16669087.331    23262846.344    23262852.527
       656.000         441.000
 24  7 14  0 49 13.0000000  0  3R05R15R16
 -10888526.749    -8468832.623    25203790.275    25203797.166
       431.000         418.000
  -9021292.765    -7016547.629    25531959.518    25531967.611
       808.000         476.000
 -21459910.866   -16690997.849    23257573.023    23257578.784
       655.000         444.000
 24  7 14  0 49 14.0000000  0  3R05R15R16
 -10916012.267    -8490210.199    25198648.723    25198655.359
       431.000         418.000
  -9058652.952    -7045605.395    25524967.683    25524975.897
       807.000         475.000
 -21488075.698   -16712903.815    23252300.102    23252306.560
       655.000         443.000
 24  7 14  0 49 15.0000000  0  3R05R15R16
 -10943502.027    -8511591.096    25193506.406    25193512.385
       431.000         420.000
  -9096018.014    -7074666.947    25517975.420    25517983.329
       815.000         481.000
 -21516234.821   -16734805.337    23247028.967    23247034.675
       656.000         441.000
 24  7 14  0 49 16.0000000  0  3R05R15R16
 -10970996.077    -8532975.296    25188363.183    25188369.382
       433.000         420.000
  -9133387.944    -7103732.290    25510982.219    25510989.906
       812.000         476.000
 -21544388.142   -16756702.325    23241758.427    23241764.406
       656.000         441.000
 24  7 14  0 49 17.0000000  0  3R05R15R16
 -10998494.288    -8554362.773    25183219.146    25183225.326
       432.000         420.000
  -9170762.658    -7132801.346    25503987.796    25503995.852
       814.000         479.000
 -21572535.626   -16778594.805    23236489.203    23236495.088
       657.000         442.000
 24  7 14  0 49 18.0000000  0  3R05R15R16
 -11025996.678    -8575753.471    25178074.608    25178080.175
       434.000         417.000
  -9208142.132    -7161874.107    25496992.416    25497000.680
       815.000         473.000
 -21600677.226   -16800482.697    23231221.245    23231227.358
       656.000         442.000
 24  7 14  0 49 19.0000000  0  3R05R15R16
 -11053503.203    -8597147.393    25172928.400    25172934.427
       436.000         419.000
  -9245526.337    -7190950.560    25489996.586    25490004.450
       818.000         478.000
 -21628812.909   -16822365.987    23225953.994    23225959.775
       660.000         444.000
 24  7 14  0 49 20.0000000  0  3R05R15R16
 -11081013.866    -8618544.532    25167781.877    25167787.891
       436.000         418.000
  -9282915.223    -7220030.651    25482999.835    25483007.731
       821.000         479.000
 -21656942.659   -16844244.661    23220688.140    23220694.010
       660.000         444.000
 24  7 14  0 49 21.0000000  0  3R05R15R16
 -11108528.667    -8639944.924    25162634.628    25162640.572
       436.000         421.000
  -9322092.314    -7250501.588    25475668.184    25475676.193
       821.000         479.000
 -21685066.380   -16866118.722    23215423.345    23215429.056
       660.000         444.000
 24  7 14  0 49 22.0000000  0  3R05R15R16
 -11136047.538    -8661348.438    25157486.967    25157492.758
       438.000         421.000
  -9359490.482    -7279588.867    25468669.678    25468677.342
       822.000         481.000
 -21713184.266   -16887988.103    23210159.443    23210165.756
       660.000         443.000
 24  7 14  0 49 23.0000000  0  3R05R15R16
 -11163570.527    -8682755.126    25152338.465    25152344.204
       437.000         418.000
  -9396893.440    -7308679.921    25461670.221    25461677.545
       827.000         482.000
 -21741296.078   -16909852.776    23204897.107    23204902.806
       659.000         442.000
 24  7 14  0 49 24.0000000  0  3R05R15R16
 -11191097.539    -8704165.024    25147188.391    25147194.911
       437.000         419.000
  -9434300.813    -7337774.386    25454669.992    25454677.617
       822.000         478.000
 -21769401.722   -16931712.778    23199635.395    23199641.207
       659.000         443.000
 24  7 14  0 49 25.0000000  0  3R05R15R16
 -11218628.621    -8725578.023    25142038.320    25142044.139
       435.000         419.000
  -9471712.742    -7366872.409    25447668.616    25447676.044
       826.000         480.000
 -21797501.244   -16953567.928    23194375.034    23194380.848
       659.000         446.000
 24  7 14  0 49 26.0000000  0  3R05R15R16
 -11246163.681    -8746994.141    25136887.172    25136893.328
       440.000         419.000
  -9509129.135    -7395973.881    25440666.133    25440674.001
       827.000         482.000
 -21825594.576   -16975418.261    23189116.077    23189122.137
       658.000         445.000
 24  7 14  0 49 27.0000000  0  3R05R15R16
 -11273702.718    -8768413.351    25131735.239    25131741.500
       438.000         421.000
  -9546550.013    -7425078.873    25433663.411    25433671.219
       827.000         482.000
 -21853681.682   -16997263.778    23183858.158    23183864.208
       659.000         445.000
 24  7 14  0 49 28.0000000  0  3R05R15R16
 -11301245.692    -8789835.618    25126582.560    25126589.154
       437.000         423.000
  -9583975.284    -7454187.286    25426659.800    25426667.617
       827.000         481.000
 -21881762.574   -17019104.451    23178601.106    23178607.138
       659.000         444.000
 24  7 14  0 49 29.0000000  0  3R05R15R16
 -11328792.574    -8811260.929    25121429.119    25121435.208
       443.000         419.000
  -9621404.852    -7483299.040    25419655.348    25419662.631
       830.000         480.000
 -21909837.222   -17040940.271    23173345.858    23173351.385
       661.000         445.000
 24  7 14  0 49 30.0000000  0  3R05R15R16
 -11356343.366    -8832689.282    25116275.507    25116281.835
       438.000         420.000
  -9658838.725    -7512414.141    25412649.911    25412657.214
       836.000         484.000
 -21937905.598   -17062771.213    23168091.056    23168096.985
       659.000         445.000
 24  7 14  0 49 31.0000000  0  3R05R15R16
 -11383898.069    -8854120.632    25111120.997    25111126.624
       442.000         423.000
  -9696276.969    -7541532.568    25405643.625    25405650.960
       832.000         480.000
 -21965967.590   -17084597.198    23162837.520    23162843.880
       662.000         449.000
 24  7 14  0 49 32.0000000  0  3R05R15R16
 -11411456.615    -8875555.084    25105965.653    25105971.477
       441.000         421.000
  -9733719.343    -7570654.254    25398636.769    25398644.165
       836.000         486.000
 -21994023.304   -17106418.299    23157585.855    23157591.862
       664.000         446.000
 24  7 14  0 49 33.0000000  0  3R05R15R16
 -11439019.115    -8896992.501    25100809.742    25100815.531
       441.000         424.000
  -9771165.962    -7599779.348    25391629.015    25391636.563
       836.000         483.000
 -22022072.540   -17128234.298    23152334.901    23152340.716
       661.000         443.000
 24  7 14  0 49 34.0000000  0  3R05R15R16
 -11466585.383    -8918432.921    25095652.515    25095658.136
       441.000         421.000
  -9808616.733    -7628907.630    25384620.296    25384627.923
       835.000         481.000
 -22050115.253   -17150045.304    23147085.287    23147091.139
       661.000         444.000
 24  7 14  0 49 35.0000000  0  3R05R15R16
 -11494155.465    -8939876.271    25090494.892    25090500.716
       444.000         419.000
  -9846071.657    -7658039.102    25377611.390    25377618.426
       838.000         484.000
 -22078151.490   -17171851.281    23141836.652    23141842.179
       658.000         444.000
 24  7 14  0 49 36.0000000  0  3R05R15R16
 -11521729.315    -8961322.550    25085336.671    25085342.241
       444.000         420.000
  -9883530.641    -7687173.764    25370601.107    25370608.817
       841.000         483.000
 -22106181.251   -17193652.175    23136589.762    23136595.286
       663.000         444.000
 24  7 14  0 49 37.0000000  0  3R05R15R16
 -11549306.885    -8982771.751    25080177.883    25080183.319
       443.000         422.000
  -9920993.706    -7716311.596    25363590.548    25363597.545
       843.000         484.000
 -22134204.453   -17215447.984    23131343.326    23131349.878
       664.000         444.000
 24  7 14  0 49 38.0000000  0  3R05R15R16
 -11576888.206    -9004223.854    25075017.739    25075023.636
       446.000         425.000
  -9958460.762    -7745452.537    25356578.900    25356586.483
       843.000         484.000
 -22162221.056   -17237238.656    23126098.681    23126104.975
       665.000         447.000
 24  7 14  0 49 39.0000000  0  3R05R15R16
 -11604473.231    -9025678.840    25069857.487    25069863.513
       446.000         423.000
  -9995931.765    -7774596.524    25349567.038    25349573.857
       844.000         486.000
 -22190231.002   -17259024.156    23120854.947    23120861.108
       661.000         445.000
 24  7 14  0 49 40.0000000  0  3R05R15R16
 -11632061.923    -9047136.677    25064696.743    25064702.732
       445.000         422.000
 -10033406.700    -7803743.579    25342553.584    25342560.993
       847.000         487.000
 -22218234.268   -17280804.459    23115612.720    23115618.539
       660.000         447.000
 24  7 14  0 49 41.0000000  0  3R05R15R16
 -11659654.165    -9068597.331    25059534.515    25059540.771
       444.000         422.000
 -10070885.542    -7832893.713    25335539.872    25335546.886
       842.000         483.000
 -22246230.784   -17302579.557    23110371.786    23110377.430
       662.000         447.000
 24  7 14  0 49 42.0000000  0  3R05R15R16
 -11687250.251    -9090060.821    25054372.444    25054378.224
       446.000         422.000
 -10108368.155    -7862046.789    25328525.657    25328532.596
       847.000         486.000
 -22274220.637   -17324349.367    23105132.087    23105137.649
       662.000         445.000
 24  7 14  0 49 43.0000000  0  3R05R15R16
 -11714849.739    -9111527.172    25049209.005    25049215.050
       446.000         422.000
 -10145854.777    -7891202.826    25321510.290    25321517.342
       843.000         483.000
 -22302203.678   -17346113.967    23099893.754    23099899.516
       661.000         448.000
 24  7 14  0 49 44.0000000  0  3R05R15R16
 -11742452.957    -9132996.241    25044045.281    25044051.386
       450.000         424.000
 -10183345.128    -7920361.897    25314494.552    25314501.395
       849.000         486.000
 -22330179.861   -17367873.213    23094656.388    23094662.180
       661.000         447.000
 24  7 14  0 49 45.0000000  0  3R05R15R16
 -11770059.718    -9154468.135    25038881.386    25038886.942
       447.000         425.000
 -10220839.161    -7949523.821    25307477.819    25307484.861
       855.000         491.000
 -22358149.187   -17389627.104    23089420.256    23089426.208
       664.000         447.000
 24  7 14  0 49 46.0000000  0  3R05R15R16
 -11797670.021    -9175942.800    25033715.742    25033721.989
       448.000         422.000
 -10258336.924    -7978688.634    25300460.605    25300467.660
       848.000         487.000
 -22386111.630   -17411375.660    23084185.897    23084191.685
       664.000         446.000
 24  7 14  0 49 47.0000000  0  3R05R15R16
 -11825283.866    -9197420.201    25028550.156    25028555.874
       451.000         422.000
 -10295838.322    -8007856.281    25293442.404    25293449.223
       852.000         489.000
 -22414067.157   -17433118.824    23078952.431    23078958.386
       664.000         445.000
 24  7 14  0 49 48.0000000  0  3R05R15R16
 -11852901.178    -9218900.322    25023383.995    25023389.709
       450.000         424.000
 -10333343.355    -8037026.764    25286423.756    25286430.923
       852.000         486.000
 -22442015.739   -17454856.590    23073720.339    23073725.935
       666.000         447.000
 24  7 14  0 49 49.0000000  0  3R05R15R16
 -11880521.963    -9240383.142    25018216.753    25018222.637
       453.000         425.000
 -10370852.012    -8066200.050    25279404.437    25279411.415
       851.000         486.000
 -22469957.311   -17476588.913    23068489.657    23068494.958
       664.000         447.000
 24  7 14  0 49 50.0000000  0  3R05R15R16
 -11908146.192    -9261868.648    25013049.360    25013054.830
       450.000         425.000
 -10408364.237    -8095376.124    25272384.441    25272391.751
       858.000         490.000
 -22497891.821   -17498315.739    23063260.168    23063265.707
       664.000         446.000
 24  7 14  0 49 51.0000000  0  3R05R15R16
 -11935773.843    -9283356.820    25007880.524    25007886.654
       449.000         424.000
 -10445879.892    -8124554.994    25265363.950    25265370.950
       857.000         490.000
 -22525819.266   -17520037.062    23058032.080    23058037.611
       664.000         448.000
 24  7 14  0 49 52.0000000  0  3R05R15R16
 -11963404.993    -9304847.694    25002711.551    25002717.250
       453.000         422.000
 -10483399.084    -8153736.437    25258342.606    25258349.650
       860.000         491.000
 -22553739.469   -17541752.802    23052805.539    23052811.162
       663.000         450.000
 24  7 14  0 49 53.0000000  0  3R05R15R16
 -11991039.490    -9326341.211    24997541.946    24997548.054
       452.000         424.000
 -10520921.867    -8182920.600    25251321.101    25251327.460
       861.000         486.000
 -22581652.654   -17563462.943    23047579.965    23047585.764
       664.000         449.000
 24  7 14  0 49 54.0000000  0  3R05R15R16
 -12018677.238    -9347837.298    24992371.966    24992377.514
       452.000         424.000
 -10558447.869    -8212107.484    25244298.174    25244304.742
       864.000         492.000
 -22609558.589   -17585167.593    23042356.283    23042361.629
       663.000         448.000
 24  7 14  0 49 55.0000000  0  3R05R15R16
 -12046318.379    -9369335.920    24987200.930    24987207.034
       454.000         425.000
 -10595977.324    -8241296.944    25237274.945    25237281.703
       858.000         487.000
 -22637457.272   -17606866.572    23037133.097    23037138.892
       663.000         448.000
 24  7 14  0 49 56.0000000  0  3R05R15R16
 -12073962.726    -9390837.094    24982029.499    24982035.365
       454.000         423.000
 -10633510.090    -8270489.015    25230251.202    25230257.814
       863.000         491.000
 -22665348.751   -17628559.915    23031911.896    23031917.689
       664.000         447.000
 24  7 14  0 49 57.0000000  0  3R05R15R16
 -12101610.371    -9412340.784    24976857.604    24976863.436
       453.000         423.000
 -10671046.075    -8299683.571    25223226.909    25223233.379
       863.000         493.000
 -22693232.875   -17650247.560    23026691.980    23026697.278
       664.000         447.000
 24  7 14  0 49 58.0000000  0  3R05R15R16
 -12129261.281    -9433847.026    24971685.396    24971690.812
       452.000         421.000
 -10708585.290    -8328880.657    25216201.911    25216208.395
       867.000         493.000
 -22721109.637   -17671929.478    23021473.331    23021479.032
       665.000         449.000
 24  7 14  0 49 59.0000000  0  3R05R15R16
 -12156915.379    -9455355.735    24966511.820    24966517.491
       454.000         422.000
 -10746127.734    -8358080.243    25209176.304    25209182.644
       864.000         486.000
 -22748979.022   -17693605.652    23016256.018    23016261.628
       662.000         447.000
 24  7 14  0 50  0.0000000  0  3R05R15R16
 -12184572.683    -9476866.931    24961337.587    24961343.713
       457.000         423.000
 -10783673.343    -8387282.292    25202150.135    25202156.559
       874.000         496.000
 -22776840.995   -17715276.064    23011040.009    23011046.129
       664.000         449.000
 24  7 14  0 50  1.0000000  0  3R05R15R16
 -12212233.178    -9498380.539    24956163.033    24956168.845
       455.000         424.000
 -10821222.049    -8416486.883    25195123.280    25195129.656
       861.000         485.000
 -22804695.603   -17736940.687    23005825.870    23005831.678
       664.000         449.000
 24  7 14  0 50  2.0000000  0  3R05R15R16
 -12239896.764    -9519896.726    24950988.127    24950993.896
       454.000         424.000
 -10858773.903    -8445693.699    25188096.108    25188102.838
       870.000         493.000
 -22832542.554   -17758599.477    23000612.809    23000618.539
       662.000         448.000
 24  7 14  0 50  3.0000000  0  3R05R15R16
 -12267563.590    -9541415.280    24945812.405    24945818.303
       457.000         426.000
 -10896328.880    -8474903.042    25181068.076    25181074.749
       868.000         491.000
 -22860382.070   -17780252.421    22995400.837    22995406.704
       662.000         452.000
 24  7 14  0 50  4.0000000  0  3R05R15R16
 -12295233.469    -9562936.238    24940636.366    24940642.130
       457.000         426.000
 -10933886.885    -8504114.696    25174039.386    25174046.094
       874.000         496.000
 -22888214.011   -17801899.485    22990190.634    22990196.610
       663.000         450.000
 24  7 14  0 50  5.0000000  0  3R05R15R16
 -12322906.400    -9584459.635    24935459.185    24935464.895
       459.000         424.000
 -10971447.732    -8533328.623    25167010.403    25167016.819
       872.000         491.000
 -22916038.377   -17823540.630    22984982.019    22984988.109
       665.000         447.000
 24  7 14  0 50  6.0000000  0  3R05R15R16
 -12350582.478    -9605985.436    24930281.795    24930287.363
       457.000         426.000
 -11009011.515    -8562544.861    25159980.400    25159987.040
       878.000         496.000
 -22943855.099   -17845175.840    22979775.018    22979780.861
       664.000         447.000
 24  7 14  0 50  7.0000000  0  3R05R15R16
 -12378261.538    -9627513.558    24925103.958    24925109.678
       457.000         427.000
 -11046578.210    -8591763.299    25152950.388    25152957.281
       874.000         494.000
 -22971664.106   -17866805.060    22974568.869    22974574.642
       663.000         449.000
 24  7 14  0 50  8.0000000  0  3R05R15R16
 -12405943.675    -9649044.107    24919925.361    24919931.293
       458.000         422.000
 -11084147.748    -8620983.985    25145919.583    25145926.006
       872.000         495.000
 -22999465.387   -17888428.262    22969364.441    22969370.775
       665.000         448.000
 24  7 14  0 50  9.0000000  0  3R05R15R16
 -12433628.734    -9670576.910    24914746.393    24914751.829
       460.000         426.000
 -11121720.143    -8650206.879    25138888.740    25138895.119
       880.000         496.000
 -23027258.896   -17910045.426    22964161.541    22964167.015
       662.000         448.000
 24  7 14  0 50 10.0000000  0  3R05R15R16
 -12461316.757    -9692112.019    24909566.624    24909572.820
       457.000         424.000
 -11159295.349    -8679431.968    25131856.988    25131863.272
       878.000         496.000
 -23055044.629   -17931656.542    22958960.186    22958965.716
       664.000         449.000
 24  7 14  0 50 11.0000000  0  3R05R15R16
 -12489007.712    -9713649.453    24904386.578    24904392.192
       459.000         425.000
 -11196873.355    -8708659.235    25124824.664    25124830.837
       879.000         496.000
 -23082822.616   -17953261.644    22953759.582    22953765.244
       663.000         452.000
 24  7 14  0 50 12.0000000  0  3R05R15R16
 -12516701.539    -9735189.062    24899205.155    24899211.436
       460.000         426.000
 -11234453.835    -8737888.474    25117792.278    25117798.452
       879.000         493.000
 -23110592.692   -17974860.517    22948561.162    22948566.916
       664.000         451.000
 24  7 14  0 50 13.0000000  0  3R05R15R16
 -12544398.363    -9756730.956    24894024.318    24894030.146
       458.000         426.000
 -11272037.046    -8767119.788    25110758.676    25110765.312
       881.000         497.000
 -23138354.859   -17996453.318    22943364.112    22943369.905
       664.000         451.000
 24  7 14  0 50 14.0000000  0  3R05R15R16
 -12572097.948    -9778275.062    24888842.229    24888848.345
       462.000         426.000
 -11309622.893    -8796353.178    25103724.995    25103731.374
       886.000         500.000
 -23166109.070   -18018039.940    22938168.447    22938174.122
       664.000         452.000
 24  7 14  0 50 15.0000000  0  3R05R15R16
 -12599800.435    -9799821.380    24883660.001    24883665.799
       461.000         428.000
 -11347211.423    -8825588.572    25096690.615    25096696.748
       884.000         497.000
 -23193855.279   -18039620.345    22932974.219    22932979.871
       665.000         450.000
 24  7 14  0 50 16.0000000  0  3R05R15R16
 -12627505.778    -9821369.983    24878477.790    24878483.097
       462.000         427.000
 -11384802.450    -8854825.969    25089655.979    25089662.227
       885.000         499.000
 -23221593.461   -18061194.462    22927781.294    22927787.127
       665.000         450.000
 24  7 14  0 50 17.0000000  0  3R05R15R16
 -12655213.895    -9842920.726    24873294.255    24873299.480
       457.000         425.000
 -11422395.975    -8884065.297    25082620.629    25082627.482
       884.000         500.000
 -23249323.595   -18082762.336    22922590.572    22922595.836
       664.000         449.000
 24  7 14  0 50 18.0000000  0  3R05R15R16
 -12682924.762    -9864473.608    24868110.535    24868116.143
       461.000         424.000
 -11459991.949    -8913306.546    25075585.117    25075591.366
       883.000         500.000
 -23277045.644   -18104323.916    22917400.684    22917406.887
       663.000         450.000
 24  7 14  0 50 19.0000000  0  3R05R15R16
 -12710638.355    -9886028.599    24862926.092    24862931.409
       461.000         425.000
 -11497590.327    -8942549.660    25068548.751    25068555.276
       889.000         501.000
 -23304759.561   -18125879.175    22912212.632    22912218.632
       662.000         451.000
 24  7 14  0 50 20.0000000  0  3R05R15R16
 -12738354.678    -9907585.719    24857740.994    24857746.604
       460.000         426.000
 -11535191.109    -8971794.648    25061512.486    25061518.804
       889.000         499.000
 -23332465.304   -18147428.080    22907025.983    22907032.156
       663.000         452.000
 24  7 14  0 50 21.0000000  0  3R05R15R16
 -12766073.692    -9929144.937    24852555.731    24852561.454
       464.000         428.000
 -11572794.312    -9001041.393    25054475.599    25054481.953
       893.000         503.000
 -23360162.867   -18168970.589    22901841.250    22901847.086
       665.000         448.000
 24  7 14  0 50 22.0000000  0  3R05R15R16
 -12793795.378    -9950706.262    24847369.636    24847375.014
       463.000         425.000
 -11610399.721    -9030290.106    25047438.420    25047444.860
       894.000         503.000
 -23387852.121   -18190506.733    22896657.362    22896663.460
       664.000         449.000
 24  7 14  0 50 23.0000000  0  3R05R15R16
 -12821519.723    -9972269.669    24842182.644    24842189.027
       465.000         426.000
 -11648007.321    -9059540.394    25040400.581    25040406.494
       896.000         499.000
 -23415533.158   -18212036.358    22891475.465    22891481.325
       665.000         447.000
 24  7 14  0 50 24.0000000  0  3R05R15R16
 -12849246.680    -9993835.012    24836995.797    24837001.754
       462.000         427.000
 -11685617.300    -9088792.548    25033362.210    25033368.363
       897.000         503.000
 -23443205.837   -18233559.536    22886295.165    22886300.783
       664.000         450.000
 24  7 14  0 50 25.0000000  0  3R05R15R16
 -12876976.249   -10015402.366    24831808.637    24831814.711
       466.000         428.000
 -11723229.423    -9118046.313    25026323.774    25026329.977
       894.000         497.000
 -23470870.110   -18255076.194    22881116.486    22881122.344
       664.000         453.000
 24  7 14  0 50 26.0000000  0  3R05R15R16
 -12904708.291   -10036971.674    24826620.993    24826626.594
       466.000         428.000
 -11760843.645    -9147301.761    25019284.507    25019290.613
       899.000         501.000
 -23498526.003   -18276586.314    22875939.467    22875944.572
       662.000         451.000
 24  7 14  0 50 27.0000000  0  3R05R15R16
 -12932442.956   -10058543.065    24821432.265    24821438.209
       466.000         427.000
 -11798460.012    -9176558.876    25012245.169    25012251.440
       901.000         506.000
 -23526173.432   -18298089.870    22870763.408    22870768.573
       663.000         453.000
 24  7 14  0 50 28.0000000  0  3R05R15R16
 -12960180.176   -10080116.415    24816244.013    24816249.420
       465.000         428.000
 -11836078.430    -9205817.583    25005205.169    25005211.697
       900.000         504.000
 -23553812.416   -18319586.842    22865589.508    22865594.791
       663.000         451.000
 24  7 14  0 50 29.0000000  0  3R05R15R16
 -12987919.895   -10101691.714    24811055.018    24811059.849
       465.000         429.000
 -11873698.878    -9235077.864    24998165.017    24998170.976
       899.000         503.000
 -23581442.895   -18341077.201    22860416.791    22860422.190
       662.000         451.000
 24  7 14  0 50 30.0000000  0  3R05R15R16
 -13015662.067   -10123268.913    24805864.507    24805870.216
       468.000         428.000
 -11911321.328    -9264339.706    24991124.691    24991130.813
       902.000         503.000
 -23609064.802   -18362560.892    22855245.866    22855251.336
       666.000         451.000
 24  7 14  0 50 31.0000000  0  3R05R15R16
 -13043406.647   -10144848.069    24800674.214    24800679.550
       467.000         429.000
 -11948945.703    -9293603.030    24984083.566    24984089.800
       898.000         500.000
 -23636678.061   -18384037.864    22850076.659    22850082.548
       663.000         451.000
 24  7 14  0 50 32.0000000  0  3R05R15R16
 -13071153.699   -10166429.010    24795483.695    24795489.227
       465.000         426.000
 -11986572.026    -9322867.932    24977042.268    24977048.345
       905.000         507.000
 -23664282.727   -18405508.130    22844908.991    22844914.823
       664.000         450.000
 24  7 14  0 50 33.0000000  0  3R05R15R16
 -13098903.148   -10188011.784    24790292.663    24790297.916
       469.000         430.000
 -12024200.253    -9352134.179    24970000.315    24970006.449
       905.000         504.000
 -23691878.777   -18426971.722    22839742.848    22839748.647
       663.000         451.000
 24  7 14  0 50 34.0000000  0  3R05R15R16
 -13126654.947   -10209596.573    24785100.588    24785106.376
       468.000         429.000
 -12061830.198    -9381401.915    24962958.485    24962964.641
       909.000         509.000
 -23719466.071   -18448428.495    22834578.694    22834584.229
       662.000         450.000
 24  7 14  0 50 35.0000000  0  3R05R15R16
 -13154409.144   -10231183.123    24779909.024    24779914.506
       466.000         427.000
 -12099461.999    -9410670.995    24955916.188    24955922.490
       908.000         505.000
 -23747044.655   -18469878.485    22829415.772    22829421.250
       664.000         449.000
 24  7 14  0 50 36.0000000  0  3R05R15R16
 -13182165.621   -10252771.470    24774716.121    24774721.683
       468.000         428.000
 -12137095.518    -9439941.456    24948873.572    24948879.796
       911.000         505.000
 -23774614.483   -18491321.656    22824254.580    22824260.060
       663.000         450.000
 24  7 14  0 50 37.0000000  0  3R05R15R16
 -13209924.390   -10274361.560    24769523.581    24769529.259
       468.000         429.000
 -12174730.777    -9469213.260    24941830.623    24941836.916
       912.000         508.000
 -23802175.438   -18512757.954    22819095.148    22819100.618
       663.000         451.000
 24  7 14  0 50 38.0000000  0  3R05R15R16
 -13237685.510   -10295953.520    24764330.270    24764335.829
       468.000         428.000
 -12212367.741    -9498486.391    24934787.442    24934793.245
       911.000         507.000
 -23829727.556   -18534187.356    22813937.493    22813942.910
       663.000         450.000
 24  7 14  0 50 39.0000000  0  3R05R15R16
 -13265448.874   -10317547.207    24759136.448    24759142.209
       467.000         427.000
 -12250006.325    -9527760.791    24927743.879    24927749.504
       909.000         503.000
 -23857270.758   -18555609.831    22808781.058    22808786.632
       663.000         450.000
 24  7 14  0 50 40.0000000  0  3R05R15R16
 -13293214.451   -10339142.614    24753942.409    24753948.447
       467.000         425.000
 -12287646.483    -9557036.413    24920699.969    24920705.898
       920.000         513.000
 -23884805.021   -18577025.353    22803626.597    22803632.267
       663.000         452.000
 24  7 14  0 50 41.0000000  0  3R05R15R16
 -13320982.241   -10360739.657    24748747.719    24748754.475
       466.000         424.000
 -12325288.181    -9586313.167    24913655.616    24913662.207
       907.000         502.000
 -23912330.341   -18598433.934    22798473.827    22798479.545
       663.000         450.000
 24  7 14  0 50 42.0000000  0  3R05R15R16
 -13348752.152   -10382338.480    24743552.213    24743558.921
       466.000         426.000
 -12362931.420    -9615591.159    24906611.015    24906618.087
       916.000         508.000
 -23939846.624   -18619835.457    22793322.662    22793328.114
       663.000         450.000
 24  7 14  0 50 43.0000000  0  3R05R15R16
 -13376524.181   -10403938.948    24738357.620    24738361.594
       470.000         423.000
 -12400576.078    -9644870.343    24899566.454    24899572.871
       915.000         507.000
 -23967353.855   -18641229.910    22788173.495    22788179.154
       664.000         451.000
 24  7 14  0 50 44.0000000  0  3R05R15R16
 -13404298.327   -10425541.025    24733161.706    24733167.231
       468.000         427.000
 -12438222.154    -9674150.647    24892521.443    24892527.289
       916.000         509.000
 -23994851.986   -18662617.365    22783025.542    22783031.214
       661.000         451.000
 24  7 14  0 50 45.0000000  0  3R05R15R16
 -13432074.591   -10447144.749    24727965.145    24727971.028
       470.000         428.000
 -12475869.743    -9703431.961    24885476.138    24885482.115
       920.000         514.000
 -24022340.972   -18683997.678    22777879.496    22777884.946
       660.000         452.000
 24  7 14  0 50 46.0000000  0  3R05R15R16
 -13459852.950   -10468750.082    24722768.832    24722774.386
       469.000         428.000
 -12513518.609    -9732714.395    24878430.626    24878436.672
       920.000         513.000
 -24049820.765   -18705370.831    22772735.499    22772740.694
       662.000         449.000
 24  7 14  0 50 47.0000000  0  3R05R15R16
 -13487633.310   -10490356.934    24717571.592    24717577.554
       468.000         429.000
 -12551168.802    -9761997.803    24871384.577    24871390.514
       917.000         512.000
 -24077291.367   -18726736.840    22767592.724    22767598.370
       662.000         452.000
 24  7 14  0 50 48.0000000  0  3R05R15R16
 -13515415.711   -10511965.395    24712374.506    24712379.931
       469.000         427.000
 -12588820.214    -9791282.195    24864338.418    24864344.782
       921.000         513.000
 -24104752.741   -18748095.676    22762452.017    22762457.581
       663.000         451.000
 24  7 14  0 50 49.0000000  0  3R05R15R16
 -13543200.154   -10533575.476    24707176.776    24707182.821
       470.000         431.000
 -12626472.867    -9820567.529    24857292.666    24857298.739
       920.000         512.000
 -24132204.857   -18769447.304    22757312.708    22757318.083
       661.000         451.000
 24  7 14  0 50 50.0000000  0  3R05R15R16
 -13570986.558   -10555187.074    24701978.810    24701984.083
       470.000         430.000
 -12664126.723    -9849853.801    24850246.131    24850251.990
       928.000         518.000
 -24159647.644   -18790791.671    22752175.402    22752180.862
       660.000         451.000
 24  7 14  0 50 51.0000000  0  3R05R15R16
 -13598774.904   -10576800.323    24696780.668    24696786.261
       471.000         430.000
 -12701781.734    -9879140.937    24843199.319    24843205.270
       921.000         512.000
 -24187081.034   -18812128.754    22747039.728    22747045.588
       662.000         449.000
 24  7 14  0 50 52.0000000  0  3R05R15R16
 -13626565.380   -10598415.042    24691581.760    24691587.112
       473.000         427.000
 -12739437.799    -9908428.994    24836152.581    24836158.772
       929.000         517.000
 -24214505.006   -18833458.518    22741905.821    22741911.673
       662.000         450.000
 24  7 14  0 50 53.0000000  0  3R05R15R16
 -13654357.600   -10620031.167    24686382.854    24686388.147
       472.000         429.000
 -12777094.962    -9937717.822    24829105.681    24829111.366
       928.000         518.000
 -24241919.604   -18854780.868    22736773.946    22736779.723
       663.000         450.000
 24  7 14  0 50 54.0000000  0  3R05R15R16
 -13682151.657   -10641648.771    24681183.324    24681188.379
       472.000         432.000
 -12814753.130    -9967007.421    24822058.315    24822064.100
       931.000         515.000
 -24269324.640   -18876095.912    22731643.475    22731649.342
       661.000         450.000
 24  7 14  0 50 55.0000000  0  3R05R15R16
 -13709947.550   -10663267.745    24675982.960    24675988.470
       473.000         431.000
 -12852412.301    -9996297.827    24815010.977    24815016.779
       933.000         517.000
 -24296720.207   -18897403.543    22726515.344    22726521.044
       663.000         452.000
 24  7 14  0 50 56.0000000  0  3R05R15R16
 -13737745.257   -10684888.125    24670783.177    24670788.610
       474.000         427.000
 -12890072.431   -10025589.005    24807963.338    24807969.042
       934.000         515.000
 -24324106.236   -18918703.777    22721388.446    22721394.425
       661.000         449.000
 24  7 14  0 50 57.0000000  0  3R05R15R16
 -13765544.754   -10706509.903    24665582.767    24665587.845
       472.000         431.000
 -12927733.448   -10054880.864    24800915.677    24800921.545
       936.000         518.000
 -24351482.669   -18939996.553    22716263.436    22716268.915
       660.000         451.000
 24  7 14  0 50 58.0000000  0  3R05R15R16
 -13793346.094   -10728133.124    24660381.897    24660386.888
       474.000         431.000
 -12965395.365   -10084173.412    24793867.593    24793873.369
       938.000         521.000
 -24378849.481   -18961281.828    22711140.318    22711145.789
       661.000         449.000
 24  7 14  0 50 59.0000000  0  3R05R15R16
 -13821149.186   -10749757.706    24655180.859    24655185.610
       473.000         429.000
 -13003058.079   -10113466.582    24786819.654    24786825.460
       934.000         515.000
 -24406206.585   -18982559.555    22706018.965    22706024.521
       658.000         450.000
 24  7 14  0 51  0.0000000  0  3R05R15R16
 -13848954.010   -10771383.639    24649979.150    24649984.585
       474.000         429.000
 -13040721.547   -10142760.341    24779771.438    24779776.887
       936.000         518.000
 -24433553.966   -19003829.723    22700899.563    22700904.944
       662.000         449.000
 24  7 14  0 51  1.0000000  0  3R05R15R16
 -13876760.528   -10793010.980    24644777.078    24644782.900
       475.000         431.000
 -13078385.807   -10172054.667    24772723.091    24772728.994
       940.000         521.000
 -24460891.635   -19025092.326    22695781.729    22695787.169
       659.000         449.000
 24  7 14  0 51  2.0000000  0  3R05R15R16
 -13904568.735   -10814639.487    24639574.893    24639580.506
       475.000         428.000
 -13116050.705   -10201349.562    24765674.577    24765680.415
       941.000         518.000
 -24488219.479   -19046347.345    22690666.089    22690671.341
       660.000         451.000
 24  7 14  0 51  3.0000000  0  3R05R15R16
 -13932378.601   -10836269.319    24634372.931    24634378.129
       475.000         431.000
 -13153716.368   -10230645.030    24758626.277    24758632.246
       935.000         515.000
 -24515537.518   -19067594.678    22685552.204    22685557.771
       662.000         451.000
 24  7 14  0 51  4.0000000  0  3R05R15R16
 -13960190.030   -10857900.439    24629170.011    24629175.334
       474.000         430.000
 -13191382.611   -10259941.000    24751577.087    24751583.122
       944.000         522.000
 -24542845.752   -19088834.397    22680439.905    22680444.920
       661.000         452.000
 24  7 14  0 51  5.0000000  0  3R05R15R16
 -13988003.025   -10879532.774    24623966.751    24623972.292
       473.000         429.000
 -13229049.387   -10289237.324    24744528.305    24744534.244
       946.000         523.000
 -24570144.041   -19110066.393    22675329.557    22675335.237
       661.000         452.000
 24  7 14  0 51  6.0000000  0  3R05R15R16
 -14015817.630   -10901166.307    24618763.384    24618768.977
       475.000         430.000
 -13266716.696   -10318534.077    24737479.239    24737485.326
       935.000         516.000
 -24597432.361   -19131290.612    22670221.182    22670226.500
       662.000         450.000
 24  7 14  0 51  7.0000000  0  3R05R15R16
 -14043633.766   -10922801.055    24613559.877    24613565.190
       475.000         429.000
 -13304384.491   -10347831.222    24730429.816    24730436.743
       945.000         519.000
 -24624710.679   -19152507.082    22665114.494    22665119.693
       660.000         451.000
 24  7 14  0 51  8.0000000  0  3R05R15R16
 -14071451.430   -10944437.001    24608356.119    24608361.175
       477.000         431.000
 -13342052.760   -10377128.732    24723380.808    24723387.635
       952.000         522.000
 -24651978.993   -19173715.761    22660009.794    22660014.909
       661.000         452.000
 24  7 14  0 51  9.0000000  0  3R05R15R16
 -14099270.611   -10966074.120    24603152.193    24603157.439
       478.000         432.000
 -13379721.475   -10406426.580    24716331.375    24716336.216
       943.000         521.000
 -24679237.259   -19194916.623    22654907.429    22654912.547
       658.000         452.000
 24  7 14  0 51 10.0000000  0  3R05R15R16
 -14127091.278   -10987712.393    24597947.874    24597952.794
       475.000         432.000
 -13417390.559   -10435724.719    24709282.183    24709288.270
       950.000         525.000
 -24706485.425   -19216109.630    22649805.906    22649811.512
       661.000         450.000
 24  7 14  0 51 11.0000000  0  3R05R15R16
 -14154913.459   -11009351.730    24592743.287    24592748.250
       476.000         432.000
 -13455060.060   -10465023.044    24702232.890    24702238.686
       951.000         525.000
 -24733723.417   -19237294.739    22644707.009    22644712.426
       661.000         453.000
 24  7 14  0 51 12.0000000  0  3R05R15R16
 -14182736.919   -11030992.299    24587538.328    24587542.859
       476.000         432.000
 -13492729.722   -10494321.782    24695183.722    24695189.396
       955.000         527.000
 -24760951.221   -19258471.934    22639610.123    22639615.296
       661.000         452.000
 24  7 14  0 51 13.0000000  0  3R05R15R16
 -14210561.815   -11052633.876    24582333.004    24582337.862
       477.000         432.000
 -13530399.597   -10523620.520    24688134.226    24688139.988
       955.000         526.000
 -24788168.912   -19279641.188    22634514.723    22634520.074
       659.000         453.000
 24  7 14  0 51 14.0000000  0  3R05R15R16
 -14238388.099   -11074276.498    24577127.356    24577132.504
       474.000         433.000
 -13568069.777   -10552919.547    24681084.635    24681090.213
       953.000         527.000
 -24815376.208   -19300802.427    22629421.770    22629426.707
       661.000         452.000
 24  7 14  0 51 15.0000000  0  3R05R15R16
 -14266215.677   -11095920.127    24571921.125    24571926.445
       476.000         433.000
 -13605740.124   -10582218.647    24674035.563    24674040.875
       952.000         528.000
 -24842573.251   -19321955.652    22624330.117    22624335.229
       662.000         451.000
 24  7 14  0 51 16.0000000  0  3R05R15R16
 -14294044.550   -11117564.819    24566715.369    24566720.491
       475.000         434.000
 -13643410.544   -10611517.818    24666985.601    24666991.207
       956.000         529.000
 -24869759.969   -19343100.882    22619240.689    22619245.559
       661.000         451.000
 24  7 14  0 51 17.0000000  0  3R05R15R16
 -14321874.742   -11139210.483    24561509.595    24561514.301
       477.000         432.000
 -13681081.037   -10640817.061    24659936.197    24659941.745
       960.000         529.000
 -24896936.305   -19364238.015    22614153.404    22614158.530
       661.000         451.000
 24  7 14  0 51 18.0000000  0  3R05R15R16
 -14349706.205   -11160857.155    24556302.941    24556307.652
       478.000         430.000
 -13718751.568   -10670116.322    24652886.772    24652892.399
       967.000         533.000
 -24924102.230   -19385367.058    22609067.620    22609073.049
       660.000         451.000
 24  7 14  0 51 19.0000000  0  3R05R15R16
 -14377538.900   -11182504.787    24551095.855    24551101.312
       477.000         434.000
 -13756422.108   -10699415.601    24645837.078    24645842.695
       961.000         533.000
 -24951257.692   -19406487.964    22603983.905    22603989.442
       660.000         452.000
 24  7 14  0 51 20.0000000  0  3R05R15R16
 -14405372.805   -11204153.359    24545888.798    24545894.581
       474.000         434.000
 -13794092.627   -10728714.861    24638787.746    24638793.228
       963.000         533.000
 -24978402.647   -19427600.698    22598902.451    22598907.956
       660.000         450.000
 24  7 14  0 51 21.0000000  0  3R05R15R16
 -14433207.808   -11225802.859    24540682.606    24540687.202
       478.000         434.000
 -13831763.117   -10758014.052    24631738.011    24631743.779
       968.000         534.000
 -25005537.031   -19448705.231    22593823.135    22593828.459
       660.000         451.000
 24  7 14  0 51 22.0000000  0  3R05R15R16
 -14461044.146   -11247453.222    24535474.942    24535479.642
       478.000         432.000
 -13869433.417   -10787313.135    24624688.585    24624693.896
       969.000         530.000
 -25032660.887   -19469801.587    22588745.153    22588750.755
       661.000         450.000
 24  7 14  0 51 23.0000000  0  3R05R15R16
 -14488881.539   -11269104.517    24530267.232    24530272.240
       477.000         434.000
 -13907103.567   -10816612.137    24617639.037    24617644.501
       966.000         531.000
 -25059774.212   -19490889.620    22583669.458    22583675.324
       662.000         449.000
 24  7 14  0 51 24.0000000  0  3R05R15R16
 -14516719.989   -11290756.634    24525058.861    24525064.299
       478.000         435.000
 -13944773.474   -10845910.986    24610589.664    24610595.250
       961.000         528.000
 -25086876.820   -19511969.439    22578595.838    22578601.717
       660.000         449.000
 24  7 14  0 51 25.0000000  0  3R05R15R16
 -14544559.540   -11312409.611    24519851.287    24519856.150
       476.000         435.000
 -13982443.232   -10875209.609    24603540.422    24603545.719
       965.000         531.000
 -25113968.756   -19533040.936    22573524.333    22573529.617
       661.000         451.000
 24  7 14  0 51 26.0000000  0  3R05R15R16
 -14572400.148   -11334063.392    24514643.677    24514648.262
       477.000         433.000
 -14020112.653   -10904508.042    24596490.726    24596496.348
       973.000         536.000
 -25141049.951   -19554104.092    22568454.447    22568459.943
       662.000         451.000
 24  7 14  0 51 27.0000000  0  3R05R15R16
 -14600241.787   -11355717.997    24509434.852    24509440.043
       478.000         436.000
 -14057781.738   -10933806.159    24589441.582    24589447.130
       975.000         539.000
 -25168120.371   -19575158.863    22563386.645    22563392.561
       660.000         449.000
 24  7 14  0 51 28.0000000  0  3R05R15R16
 -14628084.448   -11377373.378    24504225.790    24504231.604
       481.000         432.000
 -14095450.405   -10963103.996    24582392.493    24582397.615
       981.000         539.000
 -25195179.950   -19596205.189    22558320.977    22558327.089
       660.000         453.000
 24  7 14  0 51 29.0000000  0  3R05R15R16
 -14655928.090   -11399029.524    24499017.546    24499022.804
       480.000         432.000
 -14133118.673   -10992401.507    24575343.000    24575348.710
       978.000         540.000
 -25222228.650   -19617243.061    22553257.737    22553263.107
       662.000         452.000
 24  7 14  0 51 30.0000000  0  3R05R15R16
 -14683772.667   -11420686.401    24493808.416    24493814.071
       482.000         433.000
 -14170786.508   -11021698.683    24568294.110    24568299.678
       981.000         542.000
 -25249266.460   -19638272.461    22548195.977    22548201.763
       660.000         451.000
 24  7 14  0 51 31.0000000  0  3R05R15R16
 -14711618.243   -11442343.949    24488599.501    24488604.419
       481.000         432.000
 -14208453.910   -11050995.558    24561244.815    24561251.059
       978.000         542.000
 -25276293.344   -19659293.358    22543136.800    22543141.920
       661.000         452.000
 24  7 14  0 51 32.0000000  0  3R05R15R16
 -14739464.586   -11464002.284    24483389.939    24483394.962
       480.000         433.000
 -14246120.700   -11080291.839    24554196.323    24554201.952
       980.000         544.000
 -25303309.298   -19680305.740    22538079.300    22538084.778
       659.000         452.000
 24  7 14  0 51 33.0000000  0  3R05R15R16
 -14767311.804   -11485661.243    24478180.610    24478185.680
       481.000         433.000
 -14283786.878   -11109587.834    24547147.539    24547152.906
       981.000         543.000
 -25330314.276   -19701309.661    22533023.723    22533029.306
       660.000         451.000
 24  7 14  0 51 34.0000000  0  3R05R15R16
 -14795159.897   -11507320.862    24472971.090    24472976.253
       482.000         434.000
 -14321452.539   -11138883.253    24540098.654    24540104.348
       980.000         543.000
 -25357308.232   -19722304.902    22527970.467    22527976.294
       661.000         449.000
 24  7 14  0 51 35.0000000  0  3R05R15R16
 -14823008.865   -11528981.142    24467761.310    24467766.229
       481.000         435.000
 -14359117.401   -11168178.132    24533050.162    24533055.686
       981.000         544.000
 -25384291.024   -19743291.537    22522919.473    22522924.715
       659.000         449.000
 24  7 14  0 51 36.0000000  0  3R05R15R16
 -14850858.592   -11550642.028    24462551.894    24462556.569
       481.000         432.000
 -14396781.652   -11197472.507    24526001.901    24526007.785
       985.000         544.000
 -25411262.700   -19764269.493    22517870.074    22517875.238
       659.000         449.000
 24  7 14  0 51 37.0000000  0  3R05R15R16
 -14878709.088   -11572303.510    24457341.596    24457346.500
       482.000         434.000
 -14434445.082   -11226766.270    24518953.787    24518959.082
       987.000         548.000
 -25438223.202   -19785238.760    22512822.720    22512828.386
       661.000         453.000
 24  7 14  0 51 38.0000000  0  3R05R15R16
 -14906560.313   -11593965.549    24452131.802    24452136.726
       479.000         436.000
 -14472107.760   -11256059.438    24511906.171    24511911.500
       990.000         546.000
 -25465172.489   -19806199.312    22507777.904    22507783.433
       659.000         450.000
 24  7 14  0 51 39.0000000  0  3R05R15R16
 -14934412.247   -11615628.150    24446921.613    24446926.479
       479.000         435.000
 -14509769.606   -11285351.963    24504857.940    24504863.498
       994.000         543.000
 -25492110.537   -19827151.120    22502734.996    22502740.421
       660.000         451.000
 24  7 14  0 51 40.0000000  0  3R05R15R16
 -14962264.869   -11637291.286    24441711.032    24441716.025
       478.000         436.000
 -14547430.584   -11314643.810    24497810.420    24497815.608
       996.000         545.000
 -25519037.312   -19848094.161    22497694.361    22497699.913
       659.000         451.000
 24  7 14  0 51 41.0000000  0  3R05R15R16
 -14990118.188   -11658954.943    24436499.976    24436505.189
       480.000         432.000
 -14585090.606   -11343934.980    24490762.650    24490768.540
       993.000         543.000
 -25545952.703   -19869028.375    22492655.829    22492660.937
       659.000         445.000
 24  7 14  0 51 42.0000000  0  3R05R15R16
 -15017972.035   -11680619.101    24431289.332    24431294.414
       481.000         435.000
 -14622749.797   -11373225.323    24483715.397    24483720.641
       994.000         541.000
 -25572856.854   -19889953.796    22487619.373    22487624.424
       659.000         451.000
 24  7 14  0 51 43.0000000  0  3R05R15R16
 -15045826.587   -11702283.679    24426078.372    24426083.930
       482.000         435.000
 -14660407.726   -11402514.860    24476668.117    24476673.606
       992.000         543.000
 -25599853.732   -19910951.349    22482565.439    22482570.436
       658.000         451.000
 24  7 14  0 51 44.0000000  0  3R05R15R16
 -15073681.656   -11723948.749    24420867.964    24420872.981
       481.000         436.000
 -14698064.767   -11431803.666    24469620.956    24469626.471
       995.000         545.000
 -25626734.904   -19931858.920    22477533.071    22477538.414
       660.000         451.000
 24  7 14  0 51 45.0000000  0  3R05R15R16
 -15101537.336   -11745614.240    24415656.738    24415661.630
       480.000         438.000
 -14735720.779   -11461091.593    24462574.314    24462579.759
       998.000         548.000
 -25653604.541   -19952757.530    22472503.089    22472508.633
       660.000         450.000
 24  7 14  0 51 46.0000000  0  3R05R15R16
 -15129393.510   -11767280.151    24410445.667    24410450.864
       482.000         438.000
 -14773375.622   -11490378.679    24455527.774    24455532.811
       999.000         548.000
 -25680462.642   -19973647.179    22467475.333    22467480.704
       661.000         449.000
 24  7 14  0 51 47.0000000  0  3R05R15R16
 -15157250.237   -11788946.464    24405234.438    24405239.599
       481.000         435.000
 -14811029.250   -11519664.834    24448481.226    24448486.498
      1001.000         550.000
 -25707309.230   -19994527.840    22462449.555    22462454.925
       660.000         453.000
 24  7 14  0 51 48.0000000  0  3R05R15R16
 -15185107.441   -11810613.170    24400022.770    24400028.306
       480.000         436.000
 -14848681.710   -11548950.047    24441435.033    24441440.756
      1003.000         550.000
 -25734144.223   -20015399.490    22457426.004    22457431.615
       660.000         449.000
 24  7 14  0 51 49.0000000  0  3R05R15R16
 -15212965.081   -11832280.209    24394811.849    24394816.608
       482.000         435.000
 -14886332.885   -11578234.280    24434389.149    24434394.450
      1004.000         551.000
 -25760967.552   -20036262.075    22452404.605    22452410.573
       657.000         451.000
 24  7 14  0 51 50.0000000  0  3R05R15R16
 -15240823.127   -11853947.561    24389600.583    24389605.565
       483.000         434.000
 -14923982.750   -11607517.488    24427343.254    24427348.930
      1004.000         552.000
 -25787779.171   -20057115.549    22447385.296    22447391.137
       659.000         450.000
 24  7 14  0 51 51.0000000  0  3R05R15R16
 -15268681.554   -11875615.156    24384388.826    24384394.215
       481.000         436.000
 -14961631.313   -11636799.655    24420297.923    24420303.449
      1001.000         551.000
 -25814579.121   -20077959.894    22442368.538    22442373.771
       658.000         453.000
 24  7 14  0 51 52.0000000  0  3R05R15R16
 -15296540.353   -11897283.103    24379176.734    24379182.437
       482.000         437.000
 -14999278.324   -11666080.692    24413253.266    24413258.198
      1006.000         552.000
 -25841367.211   -20098795.095    22437353.572    22437359.093
       660.000         451.000
 24  7 14  0 51 53.0000000  0  3R05R15R16
 -15324399.473   -11918951.316    24373965.579    24373970.803
       481.000         435.000
 -15036924.079   -11695360.709    24406208.142    24406213.135
      1008.000         548.000
 -25868143.535   -20119621.149    22432340.751    22432346.453
       659.000         449.000
 24  7 14  0 51 54.0000000  0  3R05R15R16
 -15352258.913   -11940619.759    24368754.366    24368759.162
       485.000         439.000
 -15074568.299   -11724639.488    24399163.672    24399168.600
      1006.000         551.000
 -25894907.999   -20140437.985    22427330.326    22427336.127
       659.000         452.000
 24  7 14  0 51 55.0000000  0  3R05R15R16
 -15380118.628   -11962288.469    24363543.016    24363547.203
       482.000         438.000
 -15112211.077   -11753917.173    24392119.281    24392124.292
      1011.000         551.000
 -25921660.604   -20161245.530    22422322.543    22422327.997
       662.000         449.000
 24  7 14  0 51 56.0000000  0  3R05R15R16
 -15407978.663   -11983957.354    24358330.717    24358335.716
       485.000         437.000
 -15149852.272   -11783193.657    24385075.455    24385079.968
      1012.000         551.000
 -25948401.255   -20182043.802    22417316.565    22417321.584
       658.000         449.000
 24  7 14  0 51 57.0000000  0  3R05R15R16
 -15435838.915   -12005626.424    24353118.876    24353123.792
       484.000         437.000
 -15187491.861   -11812468.884    24378031.319    24378036.532
      1010.000         555.000
 -25975129.919   -20202832.765    22412312.969    22412318.139
       662.000         449.000
 24  7 14  0 51 58.0000000  0  3R05R15R16
 -15463699.388   -12027295.670    24347906.788    24347911.928
       480.000         438.000
 -15225129.822   -11841742.819    24370987.606    24370993.218
      1014.000         553.000
 -26001846.548   -20223612.364    22407311.226    22407316.924
       661.000         449.000
 24  7 14  0 51 59.0000000  0  3R05R15R16
 -15491560.026   -12048965.044    24342694.890    24342699.854
       481.000         439.000
 -15262766.076   -11871015.442    24363944.483    24363950.036
      1016.000         555.000
 -26028551.143   -20244382.599    22402312.376    22402317.813
       659.000         450.000
 24  7 14  0 52  0.0000000  0  3R05R15R16
 -15519420.801   -12070634.526    24337483.321    24337488.217
       482.000         438.000
 -15300400.623   -11900286.738    24356901.514    24356907.052
      1012.000         556.000
 -26055243.681   -20265143.454    22397315.195    22397321.013
       661.000         450.000
 24  7 14  0 52  1.0000000  0  3R05R15R16
 -15547281.770   -12092304.151    24332270.869    24332275.617
       484.000         440.000
 -15338033.459   -11929556.714    24349859.098    24349864.953
      1016.000         559.000
 -26081924.045   -20285894.842    22392320.684    22392326.408
       660.000         449.000
 24  7 14  0 52  2.0000000  0  3R05R15R16
 -15575142.657   -12113973.727    24327059.331    24327063.922
       482.000         438.000
 -15375664.398   -11958825.155    24342817.063    24342822.791
      1016.000         557.000
 -26108592.343   -20306636.848    22387328.438    22387333.962
       659.000         452.000
 24  7 14  0 52  3.0000000  0  3R05R15R16
 -15603003.763   -12135643.441    24321847.815    24321851.864
       482.000         438.000
 -15413293.428   -11988092.223    24335775.651    24335780.777
      1018.000         561.000
 -26135248.390   -20327369.367    22382338.136    22382344.098
       660.000         448.000
 24  7 14  0 52  4.0000000  0  3R05R15R16
 -15630864.854   -12157313.219    24316635.498    24316639.979
       485.000         437.000
 -15450920.642   -12017357.772    24328734.240    24328739.579
      1019.000         558.000
 -26161892.188   -20348092.253    22377350.681    22377356.218
       660.000         449.000
 24  7 14  0 52  5.0000000  0  3R05R15R16
 -15658726.023   -12178982.990    24311423.291    24311427.671
       483.000         437.000
 -15488545.900   -12046621.874    24321693.048    24321698.587
      1022.000         557.000
 -26188523.595   -20368805.581    22372365.254    22372370.789
       659.000         451.000
 24  7 14  0 52  6.0000000  0  3R05R15R16
 -15686587.153   -12200652.772    24306210.996    24306215.721
       485.000         439.000
 -15526169.201   -12075884.386    24314652.333    24314657.694
      1025.000         560.000
 -26215142.729   -20389509.348    22367382.108    22367387.399
       659.000         450.000
 24  7 14  0 52  7.0000000  0  3R05R15R16
 -15714448.234   -12222322.473    24300998.717    24301004.151
       484.000         437.000
 -15563790.454   -12105145.342    24307612.005    24307617.194
      1028.000         560.000
 -26241749.497   -20410203.502    22362401.134    22362406.655
       658.000         452.000
 24  7 14  0 52  8.0000000  0  3R05R15R16
 -15742309.252   -12243992.129    24295787.747    24295792.430
       483.000         440.000
 -15601409.622   -12134404.670    24300572.011    24300577.416
      1026.000         561.000
 -26268343.874   -20430888.002    22357422.422    22357428.277
       657.000         452.000
 24  7 14  0 52  9.0000000  0  3R05R15R16
 -15770170.195   -12265661.740    24290575.592    24290580.063
       485.000         441.000
 -15639026.645   -12163662.334    24293532.370    24293537.407
      1027.000         563.000
 -26294925.802   -20451562.815    22352446.333    22352451.625
       659.000         450.000
 24  7 14  0 52 10.0000000  0  3R05R15R16
 -15798030.987   -12287331.221    24285363.524    24285368.035
       483.000         441.000
 -15676641.496   -12192918.300    24286492.951    24286498.439
      1027.000         564.000
 -26321495.203   -20472227.882    22347472.546    22347477.909
       659.000         451.000
 24  7 14  0 52 11.0000000  0  3R05R15R16
 -15825891.658   -12309000.571    24280151.248    24280156.026
       485.000         439.000
 -15714254.187   -12222172.544    24279454.525    24279459.864
      1030.000         564.000
 -26348051.979   -20492883.172    22342500.804    22342506.537
       660.000         450.000
 24  7 14  0 52 12.0000000  0  3R05R15R16
 -15853752.111   -12330669.880    24274939.156    24274944.087
       483.000         438.000
 -15751864.581   -12251425.042    24272416.372    24272421.581
      1030.000         565.000
 -26374596.281   -20513528.694    22337531.785    22337537.322
       659.000         452.000
 24  7 14  0 52 13.0000000  0  3R05R15R16
 -15881612.400   -12352338.949    24269727.590    24269732.322
       483.000         440.000
 -15789472.778   -12280675.882    24265378.364    24265383.423
      1034.000         563.000
 -26401127.998   -20534164.456    22332565.050    22332570.285
       660.000         450.000
 24  7 14  0 52 14.0000000  0  3R05R15R16
 -15909472.478   -12374007.886    24264515.856    24264520.466
       485.000         440.000
 -15827078.685   -12309924.921    24258340.913    24258346.065
      1031.000         564.000
 -26427647.036   -20554790.386    22327600.526    22327606.195
       661.000         450.000
 24  7 14  0 52 15.0000000  0  3R05R15R16
 -15937332.253   -12395676.582    24259303.931    24259308.886
       487.000         440.000
 -15864682.163   -12339172.048    24251303.653    24251309.197
      1032.000         566.000
 -26454153.395   -20575406.411    22322638.533    22322643.951
       662.000         452.000
 24  7 14  0 52 16.0000000  0  3R05R15R16
 -15965191.840   -12417345.110    24254092.374    24254096.931
       487.000         438.000
 -15902283.212   -12368417.265    24244267.256    24244272.767
      1033.000         567.000
 -26480647.006   -20596012.531    22317679.163    22317684.263
       661.000         451.000
 24  7 14  0 52 17.0000000  0  3R05R15R16
 -15993051.099   -12439013.434    24248880.223    24248885.229
       487.000         437.000
 -15939881.784   -12397660.589    24237231.049    24237236.436
      1034.000         566.000
 -26507127.832   -20616608.720    22312721.730    22312727.119
       660.000         451.000
 24  7 14  0 52 18.0000000  0  3R05R15R16
 -16020910.032   -12460681.491    24243669.240    24243673.711
       486.000         440.000
 -15977477.846   -12426901.939    24230195.690    24230201.314
      1036.000         568.000
 -26533595.806   -20637194.904    22307766.730    22307772.447
       660.000         452.000
 24  7 14  0 52 19.0000000  0  3R05R15R16
 -16048768.612   -12482349.285    24238457.564    24238462.305
       487.000         441.000
 -16015071.363   -12456141.321    24223160.818    24223165.657
      1042.000         566.000
 -26560050.883   -20657771.059    22302814.158    22302819.755
       660.000         452.000
 24  7 14  0 52 20.0000000  0  3R05R15R16
 -16076626.752   -12504016.709    24233245.918    24233250.618
       486.000         442.000
 -16052662.319   -12485378.698    24216126.245    24216131.135
      1044.000         569.000
 -26586493.052   -20678337.168    22297864.195    22297869.373
       661.000         447.000
 24  7 14  0 52 21.0000000  0  3R05R15R16
 -16104484.468   -12525683.755    24228034.672    24228039.356
       485.000         441.000
 -16090250.692   -12514614.011    24209091.924    24209096.966
      1043.000         569.000
 -26612922.247   -20698893.205    22292916.504    22292922.031
       662.000         450.000
 24  7 14  0 52 22.0000000  0  3R05R15R16
 -16132341.680   -12547350.469    24222823.003    24222828.089
       486.000         439.000
 -16127836.318   -12543847.251    24202058.243    24202063.559
      1044.000         570.000
 -26639338.598   -20719439.225    22287971.187    22287977.193
       661.000         446.000
 24  7 14  0 52 23.0000000  0  3R05R15R16
 -16160198.476   -12569016.885    24217612.080    24217617.244
       487.000         440.000
 -16165419.213   -12573078.385    24195024.566    24195030.227
      1042.000         570.000
 -26665741.869   -20739975.092    22283028.351    22283033.989
       663.000         449.000
 24  7 14  0 52 24.0000000  0  3R05R15R16
 -16188054.763   -12590682.820    24212400.723    24212405.652
       487.000         441.000
 -16202999.376   -12602307.340    24187992.202    24187997.711
      1043.000         573.000
 -26692132.152   -20760500.805    22278088.433    22278093.309
       663.000         447.000
 24  7 14  0 52 25.0000000  0  3R05R15R16
 -16215910.495   -12612348.420    24207189.722    24207194.844
       484.000         442.000
 -16240576.667   -12631534.152    24180960.087    24180965.557
      1049.000         572.000
 -26718509.262   -20781016.327    22273150.468    22273155.868
       663.000         452.000
 24  7 14  0 52 26.0000000  0  3R05R15R16
 -16243765.741   -12634013.558    24201979.111    24201984.166
       488.000         441.000
 -16278151.134   -12660758.714    24173928.764    24173933.669
      1051.000         574.000
 -26744873.244   -20801521.642    22268215.221    22268220.296
       664.000         448.000
 24  7 14  0 52 27.0000000  0  3R05R15R16
 -16271620.361   -12655678.262    24196768.136    24196773.559
       490.000         441.000
 -16315722.753   -12689981.078    24166897.589    24166902.786
      1051.000         573.000
 -26771224.041   -20822016.702    22263282.032    22263287.669
       660.000         451.000
 24  7 14  0 52 28.0000000  0  3R05R15R16
 -16299474.379   -12677342.489    24191557.169    24191562.402
       486.000         442.000
 -16353291.442   -12719201.146    24159867.196    24159872.391
      1052.000         574.000
 -26797561.618   -20842501.482    22258351.618    22258356.828
       663.000         448.000
 24  7 14  0 52 29.0000000  0  3R05R15R16
 -16327327.764   -12699006.216    24186347.317    24186351.896
       486.000         443.000
 -16390857.146   -12748418.903    24152837.428    24152842.564
      1056.000         573.000
 -26823885.932   -20862975.939    22253423.554    22253428.767
       662.000         450.000
 24  7 14  0 52 30.0000000  0  3R05R15R16
 -16355180.492   -12720669.436    24181136.920    24181141.202
       487.000         443.000
 -16428419.822   -12777634.301    24145808.116    24145813.014
      1058.000         575.000
 -26850196.924   -20883440.035    22248498.092    22248503.596
       661.000         447.000
 24  7 14  0 52 31.0000000  0  3R05R15R16
 -16383032.465   -12742332.180    24175925.838    24175931.033
       488.000         443.000
 -16465979.488   -12806847.257    24138779.121    24138784.603
      1057.000         576.000
 -26876494.511   -20903893.683    22243575.103    22243580.339
       662.000         450.000
 24  7 14  0 52 32.0000000  0  3R05R15R16
 -16410883.803   -12763994.202    24170716.163    24170721.088
       487.000         442.000
 -16503535.961   -12836057.928    24131750.871    24131755.926
      1060.000         576.000
 -26902778.795   -20924337.033    22238654.608    22238660.167
       663.000         451.000
 24  7 14  0 52 33.0000000  0  3R05R15R16
 -16438734.381   -12785655.793    24165506.243    24165510.900
       490.000         443.000
 -16541089.250   -12865266.073    24124723.354    24124728.353
      1060.000         576.000
 -26929049.611   -20944769.923    22233736.953    22233742.305
       663.000         450.000
 24  7 14  0 52 34.0000000  0  3R05R15R16
 -16466584.154   -12807316.662    24160296.502    24160301.338
       490.000         444.000
 -16578639.447   -12894471.691    24117696.422    24117701.630
      1061.000         574.000
 -26955307.054   -20965192.317    22228821.345    22228826.762
       664.000         451.000
 24  7 14  0 52 35.0000000  0  3R05R15R16
 -16494433.074   -12828976.955    24155086.672    24155091.303
       492.000         444.000
 -16616186.319   -12923674.819    24110670.035    24110674.852
      1060.000         577.000
 -26981550.890   -20985604.214    22223908.435    22223913.433
       664.000         450.000
 24  7 14  0 52 36.0000000  0  3R05R15R16
 -16522281.211   -12850636.598    24149876.938    24149881.649
       490.000         446.000
 -16653729.867   -12952875.348    24103644.329    24103649.192
      1063.000         576.000
 -27007781.213   -21006005.542    22218998.358    22219002.920
       664.000         449.000
 24  7 14  0 52 37.0000000  0  3R05R15R16
 -16550128.508   -12872295.583    24144667.963    24144672.356
       490.000         445.000
 -16691270.114   -12982073.296    24096619.100    24096624.003
      1062.000         579.000
 -27033997.883   -21026396.273    22214090.184    22214095.749
       665.000         449.000
 24  7 14  0 52 38.0000000  0  3R05R15R16
 -16577974.934   -12893953.897    24139458.387    24139462.983
       487.000         446.000
 -16728807.002   -13011268.645    24089594.602    24089599.613
      1066.000         579.000
 -27060200.917   -21046776.400    22209185.258    22209190.432
       664.000         448.000
 24  7 14  0 52 39.0000000  0  3R05R15R16
 -16605820.451   -12915611.508    24134249.216    24134253.428
       490.000         446.000
 -16766340.486   -13040461.340    24082570.561    24082575.685
      1069.000         580.000
 -27086390.268   -21067145.892    22204282.310    22204287.943
       664.000         449.000
 24  7 14  0 52 40.0000000  0  3R05R15R16
 -16633665.025   -12937268.389    24129040.977    24129045.348
       488.000         444.000
 -16803870.488   -13069651.329    24075547.157    24075552.557
      1067.000         584.000
 -27112565.925   -21087504.728    22199382.247    22199387.824
       665.000         450.000
 24  7 14  0 52 41.0000000  0  3R05R15R16
 -16661508.667   -12958924.478    24123831.959    24123836.027
       492.000         446.000
 -16841397.028   -13098838.524    24068524.408    24068529.873
      1067.000         580.000
 -27138727.854   -21107852.952    22194484.220    22194489.907
       667.000         449.000
 24  7 14  0 52 42.0000000  0  3R05R15R16
 -16689351.225   -12980579.808    24118623.156    24118627.805
       490.000         448.000
 -16878919.844   -13128023.078    24061502.828    24061507.914
      1070.000         582.000
 -27164875.955   -21128190.322    22189589.508    22189594.903
       668.000         449.000
 24  7 14  0 52 43.0000000  0  3R05R15R16
 -16717192.703   -13002234.321    24113414.720    24113419.369
       491.000         446.000
 -16916439.275   -13157204.726    24054481.755    24054486.854
      1072.000         584.000
 -27191010.319   -21148516.948    22184697.093    22184702.102
       668.000         450.000
 24  7 14  0 52 44.0000000  0  3R05R15R16
 -16745033.242   -13023888.091    24108206.587    24108211.006
       491.000         445.000
 -16953954.947   -13186383.611    24047461.231    24047466.334
      1074.000         581.000
 -27217130.667   -21168832.830    22179807.204    22179812.669
       668.000         451.000
 24  7 14  0 52 45.0000000  0  3R05R15R16
 -16772872.701   -13045540.973    24102998.269    24103003.085
       495.000         447.000
 -16991466.907   -13215559.589    24040441.312    24040446.160
      1073.000         582.000
 -27243237.138   -21189137.824    22174920.192    22174925.932
       667.000         449.000
 24  7 14  0 52 46.0000000  0  3R05R15R16
 -16800711.058   -13067193.020    24097790.526    24097795.353
       495.000         445.000
 -17028975.154   -13244732.660    24033422.093    24033427.028
      1075.000         583.000
 -27269329.615   -21209432.001    22170035.438    22170040.931
       666.000         451.000
 24  7 14  0 52 47.0000000  0  3R05R15R16
 -16828548.254   -13088844.161    24092583.082    24092588.265
       491.000         446.000
 -17066479.643   -13273902.806    24026403.694    24026408.629
      1076.000         580.000
 -27295408.111   -21229715.263    22165153.819    22165158.763
       666.000         450.000
 24  7 14  0 52 48.0000000  0  3R05R15R16
 -16856384.259   -13110494.372    24087375.511    24087380.913
       491.000         447.000
 -17103980.326   -13303069.982    24019385.867    24019390.936
      1076.000         581.000
 -27321472.579   -21249987.622    22160274.160    22160279.812
       665.000         449.000
 24  7 14  0 52 49.0000000  0  3R05R15R16
 -16884219.059   -13132143.649    24082168.248    24082173.674
       492.000         447.000
 -17141477.145   -13332234.164    24012368.732    24012373.873
      1077.000         588.000
 -27347522.975   -21270249.035    22155397.452    22155402.722
       667.000         448.000
 24  7 14  0 52 50.0000000  0  3R05R15R16
 -16912052.640   -13153791.979    24076961.403    24076966.653
       493.000         450.000
 -17178970.043   -13361395.294    24005352.272    24005357.733
      1080.000         587.000
 -27373559.244   -21290499.461    22150523.488    22150529.581
       667.000         448.000
 24  7 14  0 52 51.0000000  0  3R05R15R16
 -16939884.926   -13175439.356    24071755.424    24071760.215
       493.000         449.000
 -17216458.937   -13390553.388    23998336.978    23998342.101
      1082.000         586.000
 -27399581.370   -21310738.872    22145652.050    22145657.870
       667.000         449.000
 24  7 14  0 52 52.0000000  0  3R05R15R16
 -16967716.074   -13197085.676    24066549.134    24066553.777
       495.000         447.000
 -17253943.835   -13419708.245    23991322.231    23991327.070
      1080.000         586.000
 -27425589.141   -21330967.193    22140783.483    22140788.910
       666.000         448.000
 24  7 14  0 52 53.0000000  0  3R05R15R16
 -16995545.764   -13218731.029    24061343.259    24061347.749
       491.000         448.000
 -17291424.832   -13448860.075    23984308.129    23984313.365
      1081.000         585.000
 -27451582.772   -21351184.364    22135917.365    22135922.721
       665.000         447.000
 24  7 14  0 52 54.0000000  0  3R05R15R16
 -17023374.183   -13240375.344    24056136.602    24056141.343
       494.000         446.000
 -17328901.648   -13478008.661    23977294.834    23977299.634
      1082.000         588.000
 -27477562.028   -21371390.494    22131054.040    22131059.426
       667.000         449.000
 24  7 14  0 52 55.0000000  0  3R05R15R16
 -17051201.192   -13262018.583    24050931.060    24050936.608
       492.000         448.000
 -17366374.284   -13507154.111    23970282.398    23970287.268
      1083.000         589.000
 -27503527.003   -21391585.473    22126193.508    22126198.236
       668.000         450.000
 24  7 14  0 52 56.0000000  0  3R05R15R16
 -17079026.836   -13283660.730    24045725.735    24045730.788
       496.000         449.000
 -17403842.786   -13536296.279    23963270.480    23963275.795
      1087.000         591.000
 -27529477.603   -21411769.266    22121335.232    22121340.669
       669.000         451.000
 24  7 14  0 52 57.0000000  0  3R05R15R16
 -17106851.070   -13305301.801    24040520.752    24040525.781
       496.000         446.000
 -17441307.084   -13565435.149    23956259.704    23956264.659
      1088.000         589.000
 -27555413.795   -21431941.853    22116480.094    22116485.016
       667.000         450.000
 24  7 14  0 52 58.0000000  0  3R05R15R16
 -17134673.876   -13326941.752    24035315.958    24035321.234
       495.000         449.000
 -17478767.120   -13594570.701    23949249.631    23949254.471
      1086.000         587.000
 -27581335.548   -21452103.209    22111627.367    22111632.531
       666.000         449.000
 24  7 14  0 52 59.0000000  0  3R05R15R16
 -17162495.205   -13348580.554    24030111.049    24030116.107
       495.000         450.000
 -17516222.831   -13623702.917    23942240.092    23942245.308
      1088.000         588.000
 -27607242.801   -21472253.288    22106777.627    22106782.586
       668.000         452.000
 24  7 14  0 53  0.0000000  0  3R05R15R16
 -17190315.027   -13370218.185    24024907.082    24024912.248
       493.000         454.000
 -17553674.196   -13652831.745    23935231.708    23935236.848
      1088.000         593.000
 -27633135.517   -21492392.062    22101930.468    22101935.586
       666.000         449.000
 24  7 14  0 53  1.0000000  0  3R05R15R16
 -17218133.289   -13391854.563    24019703.191    24019708.182
       495.000         448.000
 -17591121.180   -13681957.160    23928224.046    23928229.117
      1089.000         586.000
 -27659013.582   -21512519.568    22097085.795    22097091.437
       667.000         448.000
 24  7 14  0 53  2.0000000  0  3R05R15R16
 -17245950.004   -13413489.882    24014499.758    24014504.283
       494.000         447.000
 -17628563.661   -13711079.136    23921217.177    23921222.339
      1091.000         588.000
 -27684877.186   -21532635.527    22092244.044    22092249.534
       666.000         447.000
 24  7 14  0 53  3.0000000  0  3R05R15R16
 -17273765.177   -13435123.798    24009296.125    24009300.852
       494.000         448.000
 -17666001.656   -13740197.487    23914211.176    23914215.881
      1089.000         592.000
 -27710726.030   -21552740.227    22087404.998    22087410.473
       666.000         449.000
 24  7 14  0 53  4.0000000  0  3R05R15R16
 -17301578.669   -13456756.528    24004092.819    24004097.525
       497.000         448.000
 -17703435.164   -13769312.432    23907205.965    23907210.656
      1092.000         592.000
 -27736560.116   -21572833.378    22082569.146    22082574.414
       666.000         449.000
 24  7 14  0 53  5.0000000  0  3R05R15R16
 -17329390.526   -13478387.963    23998890.152    23998894.753
       496.000         449.000
 -17740864.091   -13798423.824    23900201.598    23900206.979
      1092.000         590.000
 -27762379.488   -21592915.125    22077735.512    22077740.756
       667.000         449.000
 24  7 14  0 53  6.0000000  0  3R05R15R16
 -17357200.680   -13500018.085    23993687.732    23993692.130
       495.000         450.000
 -17778288.392   -13827531.593    23893198.342    23893203.349
      1092.000         590.000
 -27788184.055   -21612985.342    22072904.910    22072910.103
       666.000         452.000
 24  7 14  0 53  7.0000000  0  3R05R15R16
 -17385009.164   -13521646.895    23988485.400    23988490.151
       498.000         448.000
 -17815707.997   -13856635.737    23886195.685    23886200.581
      1091.000         592.000
 -27813973.804   -21633044.020    22068076.928    22068082.072
       667.000         451.000
 24  7 14  0 53  8.0000000  0  3R05R15R16
 -17412815.914   -13543274.356    23983283.846    23983288.687
       496.000         449.000
 -17853122.869   -13885736.184    23879193.852    23879199.132
      1094.000         590.000
 -27839748.683   -21653091.148    22063252.069    22063257.042
       665.000         451.000
 24  7 14  0 53  9.0000000  0  3R05R15R16
 -17440620.914   -13564900.458    23978081.817    23978086.967
       496.000         450.000
 -17890532.962   -13914832.919    23872193.130    23872198.145
      1094.000         592.000
 -27865508.652   -21673126.674    22058429.578    22058434.742
       664.000         449.000
 24  7 14  0 53 10.0000000  0  3R05R15R16
 -17468424.133   -13586525.175    23972880.771    23972885.906
       494.000         452.000
 -17927938.256   -13943925.916    23865193.253    23865198.110
      1095.000         595.000
 -27891253.657   -21693150.560    22053609.973    22053615.472
       668.000         447.000
 24  7 14  0 53 11.0000000  0  3R05R15R16
 -17496225.535   -13608148.527    23967680.695    23967685.016
       493.000         451.000
 -17965338.700   -13973015.107    23858194.114    23858199.281
      1096.000         594.000
 -27916983.709   -21713162.849    22048793.128    22048798.915
       665.000         448.000
 24  7 14  0 53 12.0000000  0  3R05R15R16
 -17524025.043   -13629770.347    23962479.470    23962484.502
       494.000         452.000
 -18002734.349   -14002100.663    23851196.154    23851201.443
      1097.000         595.000
 -27942698.623   -21733163.283    22043979.241    22043984.806
       666.000         448.000
 24  7 14  0 53 13.0000000  0  3R05R15R16
 -17551822.707   -13651390.734    23957279.161    23957284.198
       494.000         447.000
 -18040124.947   -14031182.155    23844199.035    23844204.128
      1095.000         595.000
 -27968398.470   -21753152.070    22039168.177    22039173.840
       666.000         451.000
 24  7 14  0 53 14.0000000  0  3R05R15R16
 -17579618.433   -13673009.615    23952079.786    23952084.386
       495.000         449.000
 -18077510.588   -14060259.873    23837202.720    23837207.943
      1096.000         593.000
 -27994083.204   -21773129.062    22034360.236    22034365.585
       665.000         450.000
 24  7 14  0 53 15.0000000  0  3R05R15R16
 -17607412.221   -13694626.992    23946880.439    23946885.168
       497.000         450.000
 -18114891.130   -14089333.674    23830207.527    23830212.528
      1096.000         596.000
 -28019752.777   -21793094.297    22029554.898    22029559.926
       665.000         449.000
 24  7 14  0 53 16.0000000  0  3R05R15R16
 -17635204.072   -13716242.845    23941681.480    23941686.140
       497.000         453.000
 -18152266.668   -14118403.520    23823213.004    23823218.023
      1097.000         597.000
 -28045407.167   -21813047.702    22024752.096    22024757.308
       663.000         450.000
 24  7 14  0 53 17.0000000  0  3R05R15R16
 -17662993.892   -13737857.156    23936482.583    23936487.157
       498.000         453.000
 -18189637.107   -14147469.411    23816219.707    23816224.475
      1097.000         596.000
 -28071046.327   -21832989.277    22019952.321    22019957.743
       664.000         452.000
 24  7 14  0 53 18.0000000  0  3R05R15R16
 -17690781.699   -13759469.886    23931284.527    23931288.763
       497.000         453.000
 -18227002.356   -14176531.257    23809227.362    23809232.320
      1099.000         598.000
 -28096670.216   -21852918.958    22015155.759    22015160.567
       667.000         449.000
 24  7 14  0 53 19.0000000  0  3R05R15R16
 -17718567.460   -13781081.026    23926087.001    23926091.369
       497.000         453.000
 -18264362.382   -14205589.049    23802236.127    23802240.902
      1097.000         596.000
 -28122278.741   -21872836.698    22010361.597    22010367.034
       664.000         450.000
 24  7 14  0 53 20.0000000  0  3R05R15R16
 -17746351.167   -13802690.570    23920888.808    23920893.863
       497.000         454.000
 -18301717.141   -14234642.741    23795245.678    23795250.557
      1099.000         594.000
 -28147871.891   -21892742.477    22005570.414    22005575.668
       667.000         446.000
 24  7 14  0 53 21.0000000  0  3R05R15R16
 -17774132.774   -13824298.519    23915692.193    23915696.049
       499.000         451.000
 -18339066.544   -14263692.236    23788256.055    23788261.132
      1100.000         598.000
 -28173449.680   -21912636.341    22000782.260    22000787.179
       668.000         447.000
 24  7 14  0 53 22.0000000  0  3R05R15R16
 -17801912.302   -13845904.724    23910495.152    23910499.645
       500.000         454.000
 -18376410.709   -14292737.688    23781267.604    23781272.643
      1099.000         596.000
 -28199011.874   -21932518.017    21995996.948    21996001.701
       665.000         447.000
 24  7 14  0 53 23.0000000  0  3R05R15R16
 -17829689.584   -13867509.346    23905298.634    23905303.367
       500.000         451.000
 -18413749.288   -14321778.885    23774280.254    23774285.249
      1100.000         597.000
 -28224558.730   -21952387.775    21991214.903    21991220.031
       668.000         448.000
 24  7 14  0 53 24.0000000  0  3R05R15R16
 -17857464.714   -13889112.204    23900102.797    23900107.662
       499.000         453.000
 -18451082.560   -14350815.827    23767293.797    23767298.884
      1104.000         598.000
 -28250089.923   -21972245.362    21986435.082    21986440.593
       667.000         448.000
 24  7 14  0 53 25.0000000  0  3R05R15R16
 -17885237.646   -13910713.335    23894907.060    23894912.484
       497.000         456.000
 -18488410.340   -14379848.515    23760308.453    23760313.298
      1101.000         599.000
 -28275605.592   -21992090.887    21981658.263    21981663.701
       666.000         449.000
 24  7 14  0 53 26.0000000  0  3R05R15R16
 -17913008.263   -13932312.720    23889712.381    23889716.751
       499.000         453.000
 -18525732.626   -14408876.947    23753323.799    23753328.870
      1104.000         600.000
 -28301105.644   -22011924.259    21976884.791    21976890.153
       666.000         449.000
 24  7 14  0 53 27.0000000  0  3R05R15R16
 -17940776.647   -13953910.332    23884517.982    23884522.140
       501.000         454.000
 -18563049.302   -14437901.034    23746340.536    23746345.812
      1104.000         600.000
 -28326589.997   -22031745.423    21972113.891    21972119.147
       667.000         447.000
 24  7 14  0 53 28.0000000  0  3R05R15R16
 -17968542.698   -13975506.145    23879323.413    23879328.385
       503.000         454.000
 -18600360.369   -14466920.739    23739358.491    23739363.503
      1106.000         601.000
 -28352058.640   -22051554.358    21967346.285    21967351.601
       666.000         450.000
 24  7 14  0 53 29.0000000  0  3R05R15R16
 -17996306.389   -13997100.121    23874129.722    23874134.303
       501.000         453.000
 -18637665.728   -14495936.017    23732377.395    23732382.062
      1104.000         601.000
 -28377511.520   -22071351.039    21962581.466    21962586.721
       666.000         448.000
 24  7 14  0 53 30.0000000  0  3R05R15R16
 -18024067.698   -14018692.243    23868936.433    23868941.144
       500.000         455.000
 -18674965.347   -14524946.823    23725397.155    23725402.215
      1107.000         603.000
 -28402948.608   -22091135.437    21957819.776    21957824.834
       665.000         448.000
 24  7 14  0 53 31.0000000  0  3R05R15R16
 -18051826.670   -14040282.453    23863743.593    23863748.025
       500.000         455.000
 -18712259.271   -14553953.165    23718418.151    23718422.994
      1106.000         602.000
 -28428369.843   -22110907.506    21953061.114    21953065.873
       664.000         450.000
 24  7 14  0 53 32.0000000  0  3R05R15R16
 -18079583.134   -14061870.881    23858551.360    23858555.547
       501.000         455.000
 -18749547.200   -14582954.913    23711440.049    23711445.009
      1105.000         604.000
 -28453775.374   -22130667.328    21948304.743    21948309.777
       665.000         449.000
 24  7 14  0 53 33.0000000  0  3R05R15R16
 -18107337.153   -14083457.415    23853358.821    23853363.955
       502.000         452.000
 -18786829.393   -14611952.212    23704463.251    23704468.142
      1106.000         598.000
 -28479164.870   -22150414.755    21943551.820    21943557.381
       663.000         446.000
 24  7 14  0 53 34.0000000  0  3R05R15R16
 -18135088.772   -14105041.947    23848167.457    23848172.061
       501.000         455.000
 -18824105.755   -14640944.918    23697487.488    23697492.365
      1109.000         603.000
 -28504538.472   -22170149.751    21938801.400    21938807.235
       665.000         448.000
 24  7 14  0 53 35.0000000  0  3R05R15R16
 -18162837.854   -14126624.549    23842976.246    23842981.086
       505.000         454.000
 -18861376.195   -14669932.993    23690512.865    23690517.689
      1109.000         604.000
 -28529895.992   -22189872.280    21934054.797    21934060.377
       667.000         446.000
 24  7 14  0 53 36.0000000  0  3R05R15R16
 -18190584.396   -14148205.185    23837785.993    23837790.719
       503.000         456.000
 -18898640.618   -14698916.438    23683539.291    23683544.155
      1108.000         602.000
 -28555237.455   -22209582.305    21929310.890    21929315.876
       667.000         446.000
 24  7 14  0 53 37.0000000  0  3R05R15R16
 -18218328.330   -14169783.800    23832595.684    23832600.415
       503.000         454.000
 -18935898.955   -14727895.145    23676566.757    23676571.720
      1110.000         605.000
 -28580562.849   -22229279.827    21924569.747    21924574.849
       668.000         449.000
 24  7 14  0 53 38.0000000  0  3R05R15R16
 -18246069.673   -14191360.391    23827405.973    23827411.029
       504.000         453.000
 -18973151.195   -14756869.086    23669595.645    23669600.305
      1111.000         605.000
 -28605872.121   -22248964.809    21919831.875    21919836.967
       671.000         449.000
 24  7 14  0 53 39.0000000  0  3R05R15R16
 -18273808.395   -14212934.949    23822216.947    23822221.936
       504.000         455.000
 -19010397.278   -14785838.261    23662625.407    23662630.394
      1111.000         603.000
 -28631165.252   -22268637.239    21915096.993    21915102.056
       668.000         447.000
 24  7 14  0 53 40.0000000  0  3R05R15R16
 -18301544.480   -14234507.451    23817028.562    23817033.195
       506.000         458.000
 -19047637.216   -14814802.651    23655656.598    23655661.196
      1113.000         605.000
 -28656442.196   -22288297.080    21910365.125    21910370.482
       668.000         448.000
 24  7 14  0 53 41.0000000  0  3R05R15R16
 -18329277.815   -14256077.912    23811840.599    23811844.904
       504.000         458.000
 -19084870.944   -14843762.173    23648688.859    23648693.895
      1112.000         604.000
 -28681702.934   -22307944.308    21905636.233    21905641.573
       669.000         447.000
 24  7 14  0 53 42.0000000  0  3R05R15R16
 -18357008.581   -14277646.179    23806653.155    23806657.229
       506.000         458.000
 -19122098.370   -14872716.925    23641722.043    23641727.275
      1111.000         605.000
 -28706947.253   -22327578.745    21900910.147    21900915.941
       668.000         447.000
 24  7 14  0 53 43.0000000  0  3R05R15R16
 -18384736.453   -14299212.287    23801465.255    23801470.488
       510.000         457.000
 -19159319.582   -14901666.706    23634756.666    23634761.527
      1114.000         605.000
 -28732175.278   -22347200.513    21896187.566    21896192.878
       669.000         448.000
 24  7 14  0 53 44.0000000  0  3R05R15R16
 -18412461.568   -14320776.272    23796279.053    23796283.690
       509.000         459.000
 -19196534.394   -14930611.514    23627792.603    23627797.355
      1117.000         604.000
 -28757386.871   -22366809.576    21891468.068    21891472.912
       667.000         448.000
 24  7 14  0 53 45.0000000  0  3R05R15R16
 -18440183.834   -14342338.025    23791093.136    23791097.766
       507.000         457.000
 -19233742.713   -14959551.350    23620829.274    23620834.382
      1113.000         605.000
 -28782582.076   -22386405.862    21886751.420    21886756.435
       668.000         445.000
 24  7 14  0 53 46.0000000  0  3R05R15R16
 -18467903.299   -14363897.601    23785907.488    23785912.569
       511.000         458.000
 -19270944.585   -14988486.141    23613867.541    23613872.777
      1113.000         607.000
 -28807760.849   -22405989.333    21882037.841    21882043.159
       668.000         448.000
 24  7 14  0 53 47.0000000  0  3R05R15R16
 -18495619.914   -14385454.973    23780722.987    23780727.453
       508.000         459.000
 -19308139.987   -15017415.870    23606906.928    23606912.062
      1116.000         609.000
 -28832923.107   -22425559.991    21877327.487    21877332.132
       669.000         449.000
 24  7 14  0 53 48.0000000  0  3R05R15R16
 -18523333.639   -14407010.076    23775538.457    23775543.078
       507.000         458.000
 -19345328.849   -15046340.544    23599947.716    23599952.414
      1118.000         607.000
 -28858068.815   -22445117.753    21872620.082    21872625.350
       669.000         449.000
 24  7 14  0 53 49.0000000  0  3R05R15R16
 -18551044.424   -14428562.903    23770354.254    23770359.149
       508.000         460.000
 -19382511.151   -15075260.098    23592989.476    23592994.550
      1115.000         604.000
 -28883197.918   -22464662.614    21867915.991    21867921.504
       670.000         447.000
 24  7 14  0 53 50.0000000  0  3R05R15R16
 -18578752.246   -14450113.424    23765171.208    23765175.383
       508.000         461.000
 -19419686.814   -15104174.497    23586032.740    23586037.644
      1116.000         605.000
 -28908310.396   -22484194.537    21863214.972    21863220.011
       669.000         449.000
 24  7 14  0 53 51.0000000  0  3R05R15R16
 -18606457.143   -14471661.686    23759988.456    23759992.906
       509.000         460.000
 -19456855.844   -15133083.644    23579076.972    23579081.773
      1119.000         602.000
 -28933406.203   -22503713.457    21858516.778    21858522.312
       670.000         447.000
 24  7 14  0 53 52.0000000  0  3R05R15R16
 -18634158.882   -14493207.472    23754806.492    23754810.645
       509.000         461.000
 -19494017.888   -15161987.607    23572122.611    23572127.682
      1116.000         605.000
 -28958485.334   -22523219.475    21853821.819    21853827.122
       669.000         447.000
 24  7 14  0 53 53.0000000  0  3R05R15R16
 -18661857.689   -14514750.978    23749624.272    23749629.608
       508.000         462.000
 -19531173.368   -15190886.262    23565169.441    23565174.141
      1117.000         607.000
 -28983547.696   -22542712.391    21849130.367    21849135.382
       669.000         448.000
 24  7 14  0 53 54.0000000  0  3R05R15R16
 -18689553.471   -14536292.132    23744443.414    23744447.995
       510.000         460.000
 -19568322.005   -15219779.611    23558217.732    23558222.315
      1117.000         606.000
 -29008593.197   -22562192.244    21844441.522    21844446.873
       669.000         448.000
 24  7 14  0 53 55.0000000  0  3R05R15R16
 -18717246.088   -14557830.825    23739262.804    23739267.247
       513.000         460.000
 -19605463.706   -15248667.617    23551267.009    23551271.579
      1118.000         604.000
 -29033621.884   -22581658.996    21839756.151    21839761.450
       668.000         449.000
 24  7 14  0 53 56.0000000  0  3R05R15R16
 -18744935.586   -14579367.094    23734082.899    23734087.377
       512.000         460.000
 -19642598.563   -15277550.244    23544317.796    23544322.342
      1115.000         609.000
 -29058633.663   -22601112.611    21835073.824    21835079.190
       668.000         449.000
 24  7 14  0 53 57.0000000  0  3R05R15R16
 -18772621.897   -14600900.884    23728903.548    23728907.991
       510.000         458.000
 -19679726.437   -15306427.491    23537369.941    23537374.546
      1116.000         606.000
 -29083628.535   -22620553.063    21830394.890    21830400.237
       669.000         446.000
 24  7 14  0 53 58.0000000  0  3R05R15R16
 -18800305.019   -14622432.194    23723724.639    23723729.688
       514.000         459.000
 -19716847.293   -15335299.259    23530423.164    23530427.737
      1117.000         608.000
 -29108606.458   -22639980.336    21825718.835    21825724.257
       670.000         450.000
 24  7 14  0 53 59.0000000  0  3R05R15R16
 -18827984.909   -14643960.992    23718546.598    23718551.751
       511.000         460.000
 -19753961.051   -15364165.515    23523477.915    23523482.402
      1119.000         611.000
 -29133567.387   -22659394.391    21821045.985    21821051.460
       669.000         450.000
 24  7 14  0 54  0.0000000  0  3R05R15R16
 -18855661.559   -14665487.270    23713369.192    23713373.842
       511.000         458.000
 -19791067.695   -15393026.232    23516533.799    23516538.535
      1121.000         606.000
 -29158511.284   -22678795.197    21816376.570    21816381.782
       670.000         449.000
 24  7 14  0 54  1.0000000  0  3R05R15R16
 -18883335.002   -14687010.948    23708192.566    23708197.109
       513.000         458.000
 -19828167.255   -15421881.446    23509591.048    23509596.063
      1121.000         609.000
 -29183438.019   -22698182.737    21811710.206    21811715.561
       670.000         447.000
 24  7 14  0 54  2.0000000  0  3R05R15R16
 -18911005.045   -14708532.132    23703016.112    23703020.829
       515.000         461.000
 -19865259.542   -15450730.931    23502649.853    23502654.472
      1121.000         608.000
 -29208347.730   -22717556.907    21807047.268    21807052.235
       668.000         450.000
 24  7 14  0 54  3.0000000  0  3R05R15R16
 -18938671.772   -14730050.749    23697840.659    23697845.396
       513.000         459.000
 -19902344.592   -15479574.943    23495709.714    23495714.472
      1121.000         606.000
 -29233240.208   -22736917.679    21802387.236    21802392.355
       671.000         444.000
 24  7 14  0 54  4.0000000  0  3R05R15R16
 -18966335.137   -14751566.690    23692665.524    23692670.453
       515.000         462.000
 -19939422.408   -15508413.189    23488771.197    23488775.825
      1123.000         610.000
 -29258115.407   -22756265.053    21797730.708    21797735.557
       669.000         447.000
 24  7 14  0 54  5.0000000  0  3R05R15R16
 -18993995.093   -14773079.991    23687491.166    23687495.842
       515.000         460.000
 -19976492.801   -15537245.707    23481833.900    23481838.892
      1122.000         610.000
 -29282973.373   -22775599.030    21793076.934    21793082.267
       671.000         446.000
 24  7 14  0 54  6.0000000  0  3R05R15R16
 -19021651.594   -14794590.598    23682317.525    23682322.199
       513.000         460.000
 -20013555.818   -15566072.497    23474898.017    23474903.081
      1121.000         609.000
 -29307814.084   -22794919.573    21788426.979    21788431.664
       668.000         448.000
 24  7 14  0 54  7.0000000  0  3R05R15R16
 -19049304.651   -14816098.530    23677144.476    23677149.116
       515.000         462.000
 -20050611.414   -15594893.540    23467963.591    23467968.628
      1123.000         612.000
 -29332637.422   -22814226.618    21783779.743    21783785.075
       668.000         449.000
 24  7 14  0 54  8.0000000  0  3R05R15R16
 -19076954.246   -14837603.758    23671971.761    23671976.899
       514.000         462.000
 -20087659.553   -15623708.746    23461030.448    23461035.335
      1123.000         611.000
 -29357443.364   -22833520.131    21779136.034    21779141.205
       669.000         449.000
 24  7 14  0 54  9.0000000  0  3R05R15R16
 -19104600.329   -14859106.261    23666799.820    23666804.778
       516.000         460.000
 -20124700.179   -15652518.115    23454098.577    23454103.510
      1120.000         610.000
 -29382231.870   -22852800.075    21774495.786    21774500.773
       669.000         447.000
 24  7 14  0 54 10.0000000  0  3R05R15R16
 -19132242.854   -14880605.997    23661628.854    23661633.812
       517.000         460.000
 -20161733.249   -15681321.609    23447168.343    23447173.454
      1120.000         615.000
 -29407002.899   -22872066.428    21769858.416    21769863.845
       669.000         448.000
 24  7 14  0 54 11.0000000  0  3R05R15R16
 -19159881.730   -14902102.871    23656458.683    23656462.738
       518.000         461.000
 -20198758.777   -15710119.149    23440239.894    23440244.902
      1118.000         613.000
 -29431756.505   -22891319.090    21765224.511    21765229.829
       666.000         449.000
 24  7 14  0 54 12.0000000  0  3R05R15R16
 -19187517.103   -14923597.021    23651288.772    23651293.216
       516.000         463.000
 -20235776.516   -15738910.706    23433312.716    23433317.318
      1118.000         612.000
 -29456492.345   -22910558.218    21760593.843    21760599.121
       667.000         449.000
 24  7 14  0 54 13.0000000  0  3R05R15R16
 -19215148.734   -14945088.336    23646120.166    23646124.760
       518.000         463.000
 -20272786.462   -15767696.276    23426386.515    23426391.165
      1118.000         613.000
 -29481210.751   -22929783.641    21755966.580    21755971.625
       668.000         448.000
 24  7 14  0 54 14.0000000  0  3R05R15R16
 -19242776.762   -14966576.815    23640951.658    23640955.746
       518.000         463.000
 -20309788.613   -15796475.786    23419461.946    23419466.914
      1122.000         614.000
 -29505911.397   -22948995.251    21751342.595    21751347.779
       667.000         447.000
 24  7 14  0 54 15.0000000  0  3R05R15R16
 -19270401.094   -14988062.385    23635783.804    23635788.150
       519.000         462.000
 -20346783.064   -15825249.199    23412539.026    23412544.095
      1124.000         614.000
 -29530594.375   -22968193.120    21746721.697    21746726.911
       665.000         447.000
 24  7 14  0 54 16.0000000  0  3R05R15R16
 -19298021.707   -15009545.066    23630616.753    23630621.476
       518.000         462.000
 -20383769.627   -15854016.516    23405617.428    23405622.359
      1122.000         614.000
 -29555259.638   -22987377.211    21742104.557    21742109.854
       668.000         447.000
 24  7 14  0 54 17.0000000  0  3R05R15R16
 -19325638.543   -15031024.830    23625450.054    23625454.910
       520.000         463.000
 -20420748.281   -15882777.717    23398697.531    23398702.462
      1123.000         613.000
 -29579907.153   -23006547.499    21737490.338    21737495.397
       667.000         448.000
 24  7 14  0 54 18.0000000  0  3R05R15R16
 -19353251.579   -15052501.632    23620284.607    23620289.896
       521.000         465.000
 -20457719.012   -15911532.723    23391778.782    23391783.701
      1125.000         613.000
 -29604536.873   -23025703.946    21732879.562    21732884.780
       667.000         448.000
 24  7 14  0 54 19.0000000  0  3R05R15R16
 -19380860.771   -15073975.446    23615119.863    23615124.599
       520.000         465.000
 -20494681.724   -15940281.495    23384861.862    23384867.111
      1121.000         614.000
 -29629148.724   -23044846.496    21728272.423    21728277.253
       668.000         448.000
 24  7 14  0 54 20.0000000  0  3R05R15R16
 -19408466.107   -15095446.257    23609955.654    23609960.539
       521.000         464.000
 -20531636.359   -15969023.982    23377946.465    23377951.258
      1117.000         614.000
 -29653742.669   -23063975.118    21723668.388    21723673.187
       668.000         448.000
 24  7 14  0 54 21.0000000  0  3R05R15R16
 -19436067.504   -15116914.080    23604792.544    23604796.961
       522.000         462.000
 -20568582.931   -15997760.135    23371032.179    23371036.964
      1115.000         614.000
 -29678318.727   -23083089.753    21719067.527    21719073.082
       670.000         446.000
 24  7 14  0 54 22.0000000  0  3R05R15R16
 -19463665.127   -15138378.805    23599629.613    23599634.489
       523.000         463.000
 -20605521.359   -16026490.057    23364119.484    23364124.186
      1117.000         615.000
 -29702876.663   -23102190.437    21714470.193    21714475.111
       666.000         446.000
 24  7 14  0 54 23.0000000  0  3R05R15R16
 -19491258.755   -15159840.497    23594467.686    23594472.760
       522.000         463.000
 -20642451.561   -16055213.521    23357208.984    23357213.307
      1119.000         612.000
 -29727416.712   -23121277.147    21709876.338    21709881.443
       668.000         448.000
 24  7 14  0 54 24.0000000  0  3R05R15R16
 -19518848.343   -15181299.086    23589306.202    23589311.383
       522.000         462.000
 -20679373.536   -16083930.599    23350299.021    23350303.880
      1120.000         616.000
 -29751938.643   -23140349.737    21705285.646    21705291.078
       667.000         446.000
 24  7 14  0 54 25.0000000  0  3R05R15R16
 -19546433.937   -15202754.533    23584145.649    23584150.592
       522.000         466.000
 -20716287.146   -16112641.255    23343391.152    23343396.227
      1118.000         618.000
 -29776442.455   -23159408.279    21700698.375    21700703.575
       666.000         445.000
 24  7 14  0 54 26.0000000  0  3R05R15R16
 -19574015.490   -15224206.858    23578986.149    23578990.650
       524.000         466.000
 -20753192.483   -16141345.417    23336484.910    23336489.985
      1119.000         617.000
 -29800928.102   -23178452.665    21696114.689    21696119.940
       668.000         447.000
 24  7 14  0 54 27.0000000  0  3R05R15R16
 -19601592.980   -15245656.015    23573827.117    23573831.911
       522.000         464.000
 -20790089.477   -16170043.048    23329579.954    23329585.189
      1119.000         618.000
 -29825395.571   -23197482.923    21691534.745    21691539.470
       664.000         444.000
 24  7 14  0 54 28.0000000  0  3R05R15R16
 -19629166.389   -15267101.995    23568669.432    23568673.850
       524.000         465.000
 -20826978.046   -16198734.158    23322677.015    23322681.780
      1120.000         616.000
 -29849844.800   -23216498.979    21686957.401    21686962.393
       666.000         445.000
 24  7 14  0 54 29.0000000  0  3R05R15R16
 -19656735.685   -15288544.776    23563511.781    23563516.362
       524.000         467.000
 -20863858.127   -16227418.653    23315775.425    23315780.440
      1120.000         615.000
 -29874275.734   -23235500.820    21682384.021    21682389.115
       664.000         445.000
 24  7 14  0 54 30.0000000  0  3R05R15R16
 -19684300.834   -15309984.333    23558355.080    23558359.393
       525.000         466.000
 -20900729.656   -16256096.504    23308875.302    23308880.383
      1121.000         614.000
 -29898688.336   -23254488.396    21677813.777    21677818.891
       664.000         444.000
 24  7 14  0 54 31.0000000  0  3R05R15R16
 -19711861.802   -15331420.666    23553199.276    23553203.664
       524.000         466.000
 -20937592.556   -16284767.744    23301977.049    23301981.647
      1120.000         613.000
 -29923082.516   -23273461.702    21673247.180    21673252.511
       663.000         446.000
 24  7 14  0 54 32.0000000  0  3R05R15R16
 -19739418.530   -15352853.664    23548044.355    23548049.031
       528.000         467.000
 -20974446.872   -16313432.158    23295080.309    23295084.859
      1117.000         614.000
 -29947458.422   -23292420.714    21668684.116    21668689.065
       665.000         445.000
 24  7 14  0 54 33.0000000  0  3R05R15R16
 -19766971.028   -15374283.373    23542889.822    23542894.378
       526.000         465.000
 -21011292.556   -16342089.864    23288185.143    23288189.497
      1120.000         615.000
 -29971815.803   -23311365.312    21664124.327    21664129.319
       663.000         445.000
 24  7 14  0 54 34.0000000  0  3R05R15R16
 -19794519.203   -15395709.722    23537736.435    23537740.895
       526.000         464.000
 -21048129.608   -16370740.862    23281291.583    23281296.390
      1118.000         616.000
 -29996154.753   -23330295.606    21659567.874    21659572.910
       664.000         443.000
 24  7 14  0 54 35.0000000  0  3R05R15R16
 -19822063.102   -15417132.746    23532583.728    23532588.836
       529.000         465.000
 -21084957.795   -16399385.043    23274399.694    23274404.697
      1119.000         617.000
 -30020475.133   -23349211.450    21655015.298    21655020.401
       661.000         446.000
 24  7 14  0 54 36.0000000  0  3R05R15R16
 -19849602.655   -15438552.390    23527431.682    23527436.720
       529.000         464.000
 -21121777.210   -16428022.371    23267509.299    23267514.136
      1117.000         618.000
 -30044776.895   -23368112.809    21650465.818    21650470.924
       665.000         445.000
 24  7 14  0 54 37.0000000  0  3R05R15R16
 -19877137.863   -15459968.656    23522280.752    23522285.667
       527.000         466.000
 -21158587.737   -16456652.755    23260620.701    23260625.484
      1119.000         620.000
 -30069060.041   -23386999.710    21645919.845    21645925.004
       661.000         445.000
 24  7 14  0 54 38.0000000  0  3R05R15R16
 -19904668.677   -15481381.505    23517130.176    23517135.324
       526.000         466.000
 -21195389.305   -16485276.204    23253733.703    23253738.530
      1119.000         617.000
 -30093324.533   -23405872.093    21641377.639    21641382.835
       662.000         445.000
 24  7 14  0 54 39.0000000  0  3R05R15R16
 -19932195.077   -15502790.923    23511980.945    23511986.104
       528.000         466.000
 -21232181.944   -16513892.692    23246848.688    23246853.606
      1116.000         617.000
 -30117570.332   -23424729.934    21636838.625    21636844.038
       660.000         445.000
 24  7 14  0 54 40.0000000  0  3R05R15R16
 -19959717.011   -15524196.868    23506832.577    23506837.436
       528.000         464.000
 -21268965.613   -16542502.208    23239965.083    23239969.803
      1118.000         617.000
 -30141797.399   -23443573.208    21632303.460    21632308.432
       662.000         443.000
 24  7 14  0 54 41.0000000  0  3R05R15R16
 -19987234.402   -15545599.277    23501684.838    23501689.683
       531.000         465.000
 -21305740.343   -16571104.732    23233083.246    23233088.166
      1117.000         620.000
 -30166005.628   -23462401.852    21627771.627    21627776.574
       665.000         442.000
 24  7 14  0 54 42.0000000  0  3R05R15R16
 -20014747.311   -15566998.172    23496537.839    23496542.916
       531.000         465.000
 -21342505.714   -16599700.049    23226202.939    23226207.829
      1117.000         618.000
 -30190195.133   -23481215.845    21623242.977    21623248.351
       661.000         441.000
 24  7 14  0 54 43.0000000  0  3R05R15R16
 -20042255.601   -15588393.479    23491392.217    23491396.856
       531.000         468.000
 -21379262.134   -16628288.345    23219324.495    23219329.263
      1117.000         620.000
 -30214365.657   -23500015.156    21618718.435    21618723.691
       661.000         443.000
 24  7 14  0 54 44.0000000  0  3R05R15R16
 -20069759.274   -15609785.270    23486246.743    23486251.323
       529.000         468.000
 -21416009.231   -16656869.475    23212447.805    23212452.765
      1115.000         618.000
 -30238517.294   -23518799.783    21614197.075    21614202.553
       660.000         441.000
 24  7 14  0 54 45.0000000  0  3R05R15R16
 -20097258.327   -15631173.436    23481102.941    23481107.474
       531.000         467.000
 -21452747.096   -16685443.366    23205572.917    23205577.728
      1117.000         617.000
 -30262649.903   -23537569.583    21609679.462    21609684.171
       664.000         443.000
 24  7 14  0 54 46.0000000  0  3R05R15R16
 -20124752.787   -15652557.995    23475959.351    23475964.047
       532.000         464.000
 -21489475.685   -16714010.018    23198699.518    23198704.425
      1116.000         616.000
 -30286763.533   -23556324.646    21605165.270    21605170.305
       660.000         444.000
 24  7 14  0 54 47.0000000  0  3R05R15R16
 -20152242.569   -15673938.938    23470816.988    23470821.503
       531.000         468.000
 -21526194.972   -16742569.449    23191827.993    23191832.981
      1116.000         621.000
 -30310858.147   -23575064.891    21600654.923    21600660.033
       659.000         443.000
 24  7 14  0 54 48.0000000  0  3R05R15R16
 -20179727.675   -15695316.239    23465675.339    23465679.841
       531.000         470.000
 -21562904.843   -16771121.578    23184958.132    23184963.053
      1115.000         620.000
 -30334933.687   -23593790.307    21596147.935    21596153.109
       658.000         445.000
 24  7 14  0 54 49.0000000  0  3R05R15R16
 -20207208.022   -15716689.838    23460534.472    23460539.120
       530.000         468.000
 -21599605.264   -16799666.345    23178090.303    23178095.227
      1114.000         618.000
 -30358990.096   -23612500.846    21591644.397    21591649.337
       660.000         444.000
 24  7 14  0 54 50.0000000  0  3R05R15R16
 -20234683.578   -15738059.711    23455394.527    23455399.098
       533.000         466.000
 -21636296.192   -16828203.731    23171224.074    23171228.916
      1113.000         619.000
 -30383027.314   -23631196.458    21587144.645    21587150.063
       659.000         444.000
 24  7 14  0 54 51.0000000  0  3R05R15R16
 -20262154.331   -15759425.802    23450255.503    23450260.351
       532.000         466.000
 -21672977.533   -16856733.696    23164359.706    23164364.569
      1113.000         622.000
 -30407045.394   -23649877.143    21582648.241    21582653.733
       658.000         442.000
 24  7 14  0 54 52.0000000  0  3R05R15R16
 -20289620.218   -15780788.203    23445117.514    23445121.698
       533.000         466.000
 -21709649.493   -16885256.204    23157496.976    23157501.656
      1113.000         619.000
 -30431044.070   -23668542.805    21578155.566    21578161.102
       657.000         442.000
 24  7 14  0 54 53.0000000  0  3R05R15R16
 -20317081.299   -15802146.796    23439980.165    23439985.061
       534.000         468.000
 -21746311.715   -16913771.282    23150636.179    23150640.889
      1110.000         624.000
 -30455023.509   -23687193.493    21573666.644    21573672.077
       656.000         442.000
 24  7 14  0 54 54.0000000  0  3R05R15R16
 -20344537.433   -15823501.582    23434843.986    23434848.787
       535.000         468.000
 -21782964.201   -16942278.856    23143777.170    23143782.195
      1112.000         621.000
 -30478983.524   -23705829.063    21569181.092    21569186.586
       655.000         444.000
 24  7 14  0 54 55.0000000  0  3R05R15R16
 -20371988.666   -15844852.523    23429708.609    23429713.230
       536.000         470.000
 -21819606.995   -16970778.782    23136919.867    23136924.652
      1110.000         623.000
 -30502924.209   -23724449.586    21564699.525    21564704.818
       657.000         442.000
 24  7 14  0 54 56.0000000  0  3R05R15R16
 -20399434.930   -15866199.619    23424574.581    23424578.857
       535.000         467.000
 -21856240.006   -16999271.132    23130064.379    23130069.611
      1110.000         624.000
 -30526845.447   -23743054.991    21560221.541    21560226.325
       655.000         446.000
 24  7 14  0 54 57.0000000  0  3R05R15R16
 -20426876.188   -15887542.817    23419440.965    23419445.547
       535.000         466.000
 -21892863.209   -17027755.833    23123211.015    23123215.920
      1110.000         627.000
 -30550747.203   -23761645.250    21555746.871    21555752.134
       655.000         442.000
 24  7 14  0 54 58.0000000  0  3R05R15R16
 -20454312.434   -15908882.121    23414308.367    23414313.150
       533.000         465.000
 -21929476.530   -17056232.850    23116359.299    23116364.016
      1105.000         622.000
 -30574629.442   -23780220.327    21551276.189    21551281.345
       655.000         441.000
 24  7 14  0 54 59.0000000  0  3R05R15R16
 -20481743.647   -15930217.503    23409176.239    23409181.137
       536.000         466.000
 -21966079.920   -17084702.151    23109509.413    23109514.412
      1110.000         624.000
 -30598492.141   -23798780.202    21546808.898    21546814.202
       654.000         441.000
 24  7 14  0 55  0.0000000  0  3R05R15R16
 -20509169.790   -15951548.945    23404046.345    23404050.691
       536.000         468.000
 -22002673.324   -17113163.685    23102661.577    23102666.445
      1109.000         623.000
 -30622335.254   -23817324.843    21542345.353    21542350.644
       653.000         442.000
 24  7 14  0 55  1.0000000  0  3R05R15R16
 -20536590.790   -15972876.420    23398916.431    23398921.064
       537.000         467.000
 -22039256.702   -17141617.477    23095815.433    23095820.357
      1106.000         626.000
 -30646158.805   -23835854.252    21537885.918    21537890.634
       653.000         443.000
 24  7 14  0 55  2.0000000  0  3R05R15R16
 -20564006.747   -15994199.855    23393787.703    23393792.354
       535.000         466.000
 -22075829.969   -17170063.336    23088971.169    23088976.007
      1105.000         625.000
 -30669962.486   -23854368.247    21533429.748    21533435.055
       653.000         442.000
 24  7 14  0 55  3.0000000  0  3R05R15R16
 -20591417.398   -16015519.317    23388659.655    23388664.832
       534.000         469.000
 -22112393.164   -17198501.362    23082128.895    23082133.746
      1105.000         623.000
 -30693746.492   -23872866.928    21528977.301    21528982.553
       651.000         441.000
 24  7 14  0 55  4.0000000  0  3R05R15R16
 -20618822.882   -16036834.662    23383533.034    23383538.182
       537.000         467.000
 -22148946.195   -17226931.484    23075288.467    23075293.230
      1106.000         620.000
 -30717510.729   -23891350.222    21524528.481    21524533.688
       653.000         439.000
 24  7 14  0 55  5.0000000  0  3R05R15R16
 -20646223.060   -16058145.926    23378407.587    23378412.720
       541.000         467.000
 -22185489.014   -17255353.665    23068449.984    23068454.965
      1104.000         625.000
 -30741255.151   -23909818.093    21520083.690    21520088.788
       654.000         441.000
 24  7 14  0 55  6.0000000  0  3R05R15R16
 -20673618.001   -16079453.091    23373282.421    23373287.432
       538.000         467.000
 -22222021.576   -17283767.869    23061613.266    23061618.456
      1107.000         625.000
 -30764979.757   -23928270.559    21515642.328    21515647.433
       653.000         442.000
 24  7 14  0 55  7.0000000  0  3R05R15R16
 -20701007.647   -16100756.139    23368158.677    23368163.550
       536.000         465.000
 -22258543.833   -17312174.042    23054778.757    23054783.677
      1103.000         627.000
 -30788684.443   -23946707.538    21511204.579    21511210.255
       652.000         440.000
 24  7 14  0 55  8.0000000  0  3R05R15R16
 -20728391.976   -16122055.060    23363036.020    23363040.738
       539.000         468.000
 -22295055.698   -17340572.170    23047945.992    23047950.920
      1102.000         625.000
 -30812369.185   -23965129.000    21506770.757    21506775.504
       651.000         443.000
 24  7 14  0 55  9.0000000  0  3R05R15R16
 -20755770.970   -16143349.828    23357914.778    23357918.645
       540.000         468.000
 -22331557.148   -17368962.180    23041115.208    23041120.038
      1100.000         626.000
 -30836033.908   -23983534.894    21502340.718    21502345.950
       649.000         443.000
 24  7 14  0 55 10.0000000  0  3R05R15R16
 -20783144.585   -16164640.414    23352793.682    23352798.202
       540.000         469.000
 -22368048.124   -17397344.046    23034286.488    23034291.539
      1100.000         625.000
 -30859678.583   -24001925.195    21497914.441    21497919.820
       649.000         437.000
 24  7 14  0 55 11.0000000  0  3R05R15R16
 -20810512.782   -16185926.812    23347674.057    23347678.063
       539.000         469.000
 -22404528.542   -17425717.685    23027459.207    23027464.704
      1100.000         627.000
 -30883303.259   -24020299.939    21493491.846    21493496.854
       650.000         440.000
 24  7 14  0 55 12.0000000  0  3R05R15R16
 -20837875.450   -16207208.884    23342555.115    23342559.321
       541.000         469.000
 -22440998.488   -17454083.196    23020634.514    23020640.111
      1098.000         626.000
 -30906907.736   -24038658.987    21489073.093    21489078.140
       650.000         440.000
 24  7 14  0 55 13.0000000  0  3R05R15R16
 -20865232.638   -16228486.713    23337437.411    23337442.064
       541.000         469.000
 -22477457.846   -17482440.473    23013811.636    23013817.107
      1098.000         626.000
 -30930492.098   -24057002.325    21484657.937    21484663.292
       648.000         440.000
 24  7 14  0 55 14.0000000  0  3R05R15R16
 -20892584.347   -16249760.187    23332320.619    23332325.100
       542.000         469.000
 -22513906.525   -17510789.444    23006991.206    23006996.126
      1103.000         625.000
 -30954056.206   -24075330.025    21480246.731    21480251.838
       646.000         441.000
 24  7 14  0 55 15.0000000  0  3R05R15R16
 -20919930.436   -16271029.381    23327205.089    23327209.313
       542.000         468.000
 -22550344.477   -17539130.072    23000172.350    23000177.196
      1101.000         627.000
 -30977600.151   -24093641.943    21475839.391    21475844.576
       645.000         442.000
 24  7 14  0 55 16.0000000  0  3R05R15R16
 -20947270.976   -16292294.257    23322090.609    23322094.772
       540.000         466.000
 -22586771.655   -17567462.356    22993355.451    22993360.439
      1097.000         623.000
 -31001123.772   -24111938.113    21471435.851    21471440.832
       642.000         438.000
 24  7 14  0 55 17.0000000  0  3R05R15R16
 -20974605.909   -16313554.753    23316976.697    23316981.183
       537.000         468.000
 -22623188.061   -17595786.190    22986540.661    22986545.557
      1096.000         626.000
 -31024627.045   -24130218.429    21467035.824    21467041.148
       642.000         443.000
 24  7 14  0 55 18.0000000  0  3R05R15R16
 -21001935.204   -16334810.867    23311864.588    23311868.883
       543.000         467.000
 -22659593.582   -17624101.598    22979727.957    22979733.147
      1098.000         626.000
 -31048109.959   -24148482.921    21462639.620    21462644.701
       644.000         439.000
 24  7 14  0 55 19.0000000  0  3R05R15R16
 -21029258.793   -16356062.545    23306752.514    23306756.849
       537.000         469.000
 -22695988.208   -17652408.525    22972917.035    22972922.026
      1093.000         628.000
 -31071572.478   -24166731.546    21458247.484    21458252.631
       640.000         440.000
 24  7 14  0 55 20.0000000  0  3R05R15R16
 -21056576.641   -16377309.755    23301642.298    23301646.696
       541.000         470.000
 -22732371.892   -17680706.942    22966108.569    22966113.407
      1094.000         627.000
 -31095014.567   -24184964.280    21453859.090    21453863.828
       640.000         440.000
 24  7 14  0 55 21.0000000  0  3R05R15R16
 -21083888.699   -16398552.453    23296533.042    23296537.606
       543.000         469.000
 -22768744.565   -17708996.764    22959301.689    22959306.665
      1098.000         625.000
 -31118436.216   -24203181.049    21449474.211    21449479.667
       642.000         441.000
 24  7 14  0 55 22.0000000  0  3R05R15R16
 -21111195.027   -16419790.702    23291424.957    23291429.299
       543.000         467.000
 -22805106.337   -17737278.144    22952497.151    22952501.909
      1098.000         625.000
 -31141837.163   -24221381.858    21445093.615    21445098.849
       639.000         440.000
 24  7 14  0 55 23.0000000  0  3R05R15R16
 -21138495.483   -16441024.394    23286317.841    23286322.246
       542.000         468.000
 -22841456.807   -17765550.734    22945694.664    22945699.605
      1099.000         627.000
 -31165217.589   -24239566.625    21440717.027    21440721.970
       641.000         441.000
 24  7 14  0 55 24.0000000  0  3R05R15R16
 -21165790.208   -16462253.600    23281211.548    23281216.103
       543.000         466.000
 -22877796.164   -17793814.752    22938894.083    22938898.989
      1099.000         627.000
 -31188577.310   -24257735.316    21436343.899    21436349.024
       640.000         439.000
 24  7 14  0 55 25.0000000  0  3R05R15R16
 -21193079.014   -16483478.248    23276106.995    23276111.186
       544.000         468.000
 -22914124.360   -17822069.979    22932095.875    22932100.709
      1095.000         628.000
 -31211916.370   -24275887.929    21431974.917    21431980.207
       640.000         437.000
 24  7 14  0 55 26.0000000  0  3R05R15R16
 -21220361.948   -16504698.320    23271002.909    23271007.364
       542.000         467.000
 -22950441.301   -17850316.453    22925299.770    22925304.733
      1094.000         627.000
 -31235234.770   -24294024.447    21427609.442    21427614.722
       639.000         440.000
 24  7 14  0 55 27.0000000  0  3R05R15R16
 -21247638.976   -16525913.771    23265900.208    23265904.985
       543.000         469.000
 -22986746.942   -17878554.174    22918505.580    22918510.301
      1090.000         628.000
 -31258532.441   -24312144.842    21423248.002    21423253.501
       637.000         439.000
 24  7 14  0 55 28.0000000  0  3R05R15R16
 -21274910.016   -16547124.578    23260798.603    23260802.968
       542.000         467.000
 -23023041.218   -17906783.059    22911713.764    22911718.385
      1090.000         624.000
 -31281809.289   -24330249.056    21418890.428    21418895.830
       635.000         437.000
 24  7 14  0 55 29.0000000  0  3R05R15R16
 -21302175.027   -16568330.694    23255698.367    23255702.556
       544.000         467.000
 -23059324.106   -17935003.078    22904923.798    22904928.637
      1092.000         628.000
 -31305065.264   -24348337.033    21414537.365    21414542.509
       636.000         437.000
 24  7 14  0 55 30.0000000  0  3R05R15R16
 -21329433.990   -16589532.104    23250598.677    23250603.376
       545.000         468.000
 -23095595.548   -17963214.196    22898135.919    22898140.764
      1092.000         630.000
 -31328300.329   -24366408.749    21410187.415    21410192.753
       635.000         439.000
 24  7 14  0 55 31.0000000  0  3R05R15R16
 -21356686.921   -16610728.775    23245500.687    23245504.729
       542.000         469.000
 -23131855.590   -17991416.373    22891350.463    22891355.243
      1089.000         631.000
 -31351514.459   -24384464.169    21405841.831    21405847.097
       634.000         439.000
 24  7 14  0 55 32.0000000  0  3R05R15R16
 -21383933.703   -16631920.765    23240403.714    23240407.961
       542.000         468.000
 -23168103.865   -18019609.541    22884566.913    22884571.789
      1084.000         632.000
 -31374707.583   -24402503.308    21401499.894    21401504.867
       631.000         438.000
 24  7 14  0 55 33.0000000  0  3R05R15R16
 -21411174.328   -16653107.969    23235307.184    23235311.983
       544.000         468.000
 -23204340.738   -18047793.777    22877785.767    22877790.691
      1090.000         631.000
 -31397879.769   -24420526.093    21397162.007    21397166.988
       634.000         438.000
 24  7 14  0 55 34.0000000  0  3R05R15R16
 -21438408.888   -16674290.349    23230212.874    23230217.230
       546.000         465.000
 -23240565.836   -18075968.864    22871006.763    22871011.600
      1089.000         629.000
 -31421030.879   -24438532.490    21392828.082    21392833.243
       636.000         436.000
 24  7 14  0 55 35.0000000  0  3R05R15R16
 -21465637.245   -16695467.979    23225119.022    23225123.424
       546.000         468.000
 -23276779.344   -18104134.910    22864229.960    22864234.744
      1093.000         632.000
 -31444160.867   -24456522.496    21388498.166    21388503.251
       635.000         436.000
 24  7 14  0 55 36.0000000  0  3R05R15R16
 -21492859.396   -16716640.731    23220026.726    23220031.423
       545.000         468.000
 -23312981.077   -18132291.806    22857455.264    22857460.046
      1087.000         633.000
 -31467269.754   -24474496.078    21384172.161    21384177.376
       632.000         439.000
 24  7 14  0 55 37.0000000  0  3R05R15R16
 -21520075.286   -16737808.652    23214935.605    23214940.132
       547.000         469.000
 -23349171.012   -18160439.534    22850682.824    22850687.425
      1092.000         634.000
 -31490357.425   -24492453.152    21379850.397    21379855.149
       633.000         437.000
 24  7 14  0 55 38.0000000  0  3R05R15R16
 -21547284.889   -16758971.663    23209845.487    23209849.747
       546.000         466.000
 -23385349.094   -18188578.041    22843912.468    22843917.618
      1089.000         631.000
 -31513423.868   -24510393.714    21375531.906    21375536.981
       631.000         439.000
 24  7 14  0 55 39.0000000  0  3R05R15R16
 -21574488.157   -16780129.757    23204756.220    23204760.636
       548.000         467.000
 -23421515.269   -18216707.283    22837144.439    22837149.372
      1093.000         632.000
 -31536469.040   -24528317.735    21371217.717    21371223.112
       632.000         437.000
 24  7 14  0 55 40.0000000  0  3R05R15R16
 -21601685.074   -16801282.913    23199668.720    23199673.102
       549.000         465.000
 -23457669.508   -18244827.242    22830378.765    22830383.833
      1090.000         632.000
 -31559492.885   -24546225.168    21366907.660    21366912.812
       632.000         434.000
 24  7 14  0 55 41.0000000  0  3R05R15R16
 -21628875.608   -16822431.134    23194581.998    23194586.187
       550.000         466.000
 -23493811.837   -18272937.818    22823615.279    22823619.858
      1092.000         634.000
 -31582495.357   -24564116.007    21362601.529    21362606.567
       633.000         434.000
 24  7 14  0 55 42.0000000  0  3R05R15R16
 -21656059.705   -16843574.327    23189496.520    23189500.962
       550.000         467.000
 -23529941.889   -18301039.076    22816853.952    22816858.391
      1094.000         636.000
 -31605476.433   -24581990.141    21358299.189    21358304.785
       632.000         435.000
 24  7 14  0 55 43.0000000  0  3R05R15R16
 -21683237.383   -16864712.525    23184412.179    23184417.055
       551.000         467.000
 -23566060.007   -18329130.985    22810095.012    22810099.878
      1094.000         633.000
 -31628436.107   -24599847.633    21354001.052    21354006.627
       630.000         435.000
 24  7 14  0 55 44.0000000  0  3R05R15R16
 -21710408.593   -16885845.620    23179329.552    23179333.920
       550.000         465.000
 -23602166.006   -18357213.398    22803338.209    22803342.814
      1094.000         634.000
 -31651374.239   -24617688.447    21349707.391    21349713.192
       630.000         435.000
 24  7 14  0 55 45.0000000  0  3R05R15R16
 -21737573.244   -16906973.684    23174247.573    23174252.351
       551.000         467.000
 -23638259.745   -18385286.281    22796583.745    22796588.700
      1093.000         635.000
 -31674290.922   -24635512.510    21345417.024    21345422.515
       630.000         434.000
 24  7 14  0 55 46.0000000  0  3R05R15R16
 -21764731.358   -16928096.681    23169167.370    23169171.842
       551.000         466.000
 -23674341.271   -18413349.704    22789831.592    22789836.295
      1093.000         636.000
 -31697185.971   -24653319.785    21341131.314    21341136.608
       629.000         436.000
 24  7 14  0 55 47.0000000  0  3R05R15R16
 -21791882.947   -16949214.575    23164088.076    23164092.833
       554.000         465.000
 -23710410.492   -18441403.542    22783081.761    22783086.516
      1093.000         633.000
 -31720059.407   -24671110.238    21336849.196    21336854.231
       626.000         432.000
 24  7 14  0 55 48.0000000  0  3R05R15R16
 -21819027.936   -16970327.333    23159010.082    23159014.935
       551.000         468.000
 -23746467.399   -18469447.799    22776334.222    22776338.992
      1093.000         635.000
 -31742911.162   -24688883.821    21332571.320    21332576.183
       628.000         435.000
 24  7 14  0 55 49.0000000  0  3R05R15R16
 -21846166.266   -16991434.919    23153933.221    23153937.883
       554.000         467.000
 -23782511.896   -18497482.405    22769588.853    22769593.755
      1093.000         636.000
 -31765741.218   -24706640.529    21328297.515    21328302.515
       627.000         434.000
 24  7 14  0 55 50.0000000  0  3R05R15R16
 -21873297.912   -17012537.308    23148857.663    23148862.175
       553.000         466.000
 -23818543.941   -18525507.324    22762845.908    22762850.674
      1093.000         636.000
 -31788549.534   -24724380.328    21324027.661    21324032.717
       626.000         434.000
 24  7 14  0 55 51.0000000  0  3R05R15R16
 -21900422.897   -17033634.512    23143783.270    23143787.996
       552.000         465.000
 -23854563.448   -18553522.557    22756105.369    22756110.304
      1091.000         638.000
 -31811336.056   -24742103.212    21319761.871    21319767.070
       624.000         436.000
 24  7 14  0 55 52.0000000  0  3R05R15R16
 -21927541.061   -17054726.445    23138710.522    23138714.424
       554.000         465.000
 -23890570.476   -18581527.945    22749367.150    22749371.938
      1092.000         637.000
 -31834100.771   -24759809.110    21315500.292    21315505.241
       625.000         435.000
 24  7 14  0 55 53.0000000  0  3R05R15R16
 -21954652.508   -17075813.078    23133638.522    23133643.190
       555.000         465.000
 -23926564.846   -18609523.571    22742631.261    22742636.071
      1094.000         636.000
 -31856843.703   -24777497.992    21311242.857    21311248.138
       624.000         433.000
 24  7 14  0 55 54.0000000  0  3R05R15R16
 -21981757.099   -17096894.447    23128568.237    23128572.876
       554.000         466.000
 -23962546.653   -18637509.433    22735897.702    22735902.573
      1094.000         639.000
 -31879564.665   -24795169.857    21306989.387    21306995.044
       623.000         433.000
 24  7 14  0 55 55.0000000  0  3R05R15R16
 -22008854.879   -17117970.515    23123499.043    23123503.472
       555.000         465.000
 -23998515.711   -18665485.352    22729166.763    22729171.688
      1093.000         639.000
 -31902263.658   -24812824.634    21302740.112    21302745.312
       621.000         431.000
 24  7 14  0 55 56.0000000  0  3R05R15R16
 -22035945.780   -17139041.193    23118430.919    23118435.726
       555.000         464.000
 -24034472.065   -18693451.399    22722437.924    22722442.923
      1094.000         639.000
 -31924940.610   -24830462.285    21298494.617    21298500.297
       620.000         434.000
 24  7 14  0 55 57.0000000  0  3R05R15R16
 -22063029.754   -17160106.488    23113364.571    23113368.391
       556.000         467.000
 -24070415.600   -18721407.484    22715711.541    22715716.416
      1092.000         639.000
 -31947595.524   -24848082.757    21294253.715    21294259.340
       619.000         436.000
 24  7 14  0 55 58.0000000  0  3R05R15R16
 -22090106.784   -17181166.401    23108299.061    23108303.556
       556.000         466.000
 -24106346.274   -18749353.553    22708987.676    22708992.720
      1090.000         639.000
 -31970228.362   -24865686.076    21290016.866    21290022.155
       618.000         433.000
 24  7 14  0 55 59.0000000  0  3R05R15R16
 -22117176.878   -17202220.918    23103234.907    23103239.393
       554.000         464.000
 -24142264.014   -18777289.575    22702266.028    22702271.071
      1089.000         638.000
 -31992839.070   -24883272.181    21285784.268    21285789.199
       615.000         431.000
 24  7 14  0 56  0.0000000  0  3R05R15R16
 -22144240.000   -17223270.009    23098172.471    23098176.970
       557.000         465.000
 -24178168.820   -18805215.532    22695547.084    22695551.575
      1091.000         641.000
 -32015427.583   -24900841.022    21281555.692    21281561.258
       618.000         433.000
 24  7 14  0 56  1.0000000  0 11G05G06G11G13G14G20G22G30R05R15R16
 -35821087.455   -27745532.534    21696470.889    21696471.888
       447.000         362.000
 -18055087.437   -13905350.788    24805965.201    24805969.456
       133.000         192.000
 -38125495.968   -29537653.144    21320791.329    21320792.572
       274.000         278.000
 -36660052.905   -28566232.976    21372341.494                    21372341.578
       306.000          62.000
 -14352998.011   -11014110.358    25336089.659    25336091.346
       502.000         619.000
 -35690620.097   -27810863.152    21466080.049                    21466080.198
       627.000         228.000
 -18031615.546   -14050575.975    25153213.786                    25153214.095
       365.000         115.000
 -17573199.022   -13525199.315    24929048.319    24929051.869
       414.000         388.000
 -22171296.091   -17244313.645    23093110.923    23093115.386
       556.000         464.000
 -24214060.586   -18833131.363    22688830.288    22688834.931
      1090.000         641.000
 -32037993.867   -24918392.573    21277331.239    21277336.163
       617.000         435.000
